{
"type": "FeatureCollection",
"name": "GTO_PUNTOS",
"crs": { "type": "name", "properties": { "name": "urn:ogc:def:crs:OGC:1.3:CRS84" } },
"features": [
{ "type": "Feature", "properties": { "OBJECTID": 1, "CVEGEO": "110320328006A800", "CVE_ENT": "11", "CVE_MUN": "032", "CVE_LOC": "0328", "CVE_AGEB": "006A", "NOMGEO_1": "El Tepetate" }, "geometry": { "type": "Point", "coordinates": [ -100.374159721999945, 20.990881112000068 ] } },
{ "type": "Feature", "properties": { "OBJECTID": 2, "CVEGEO": "1101200300029800", "CVE_ENT": "11", "CVE_MUN": "012", "CVE_LOC": "0030", "CVE_AGEB": "0029", "NOMGEO_1": "La Sarteneja" }, "geometry": { "type": "Point", "coordinates": [ -101.645169722, 20.663492500000075 ] } },
{ "type": "Feature", "properties": { "OBJECTID": 3, "CVEGEO": "1102900260100800", "CVE_ENT": "11", "CVE_MUN": "029", "CVE_LOC": "0026", "CVE_AGEB": "0100", "NOMGEO_1": "Coporo" }, "geometry": { "type": "Point", "coordinates": [ -100.795635, 21.330462222000051 ] } },
{ "type": "Feature", "properties": { "OBJECTID": 4, "CVEGEO": "1101300920030800", "CVE_ENT": "11", "CVE_MUN": "013", "CVE_LOC": "0092", "CVE_AGEB": "0030", "NOMGEO_1": "La Aldea" }, "geometry": { "type": "Point", "coordinates": [ -100.246603055999969, 21.105690555000024 ] } },
{ "type": "Feature", "properties": { "OBJECTID": 5, "CVEGEO": "1101705750044800", "CVE_ENT": "11", "CVE_MUN": "017", "CVE_LOC": "0575", "CVE_AGEB": "0044", "NOMGEO_1": "El Sauz Bendito" }, "geometry": { "type": "Point", "coordinates": [ -101.344468332999952, 20.719797500000027 ] } },
{ "type": "Feature", "properties": { "OBJECTID": 6, "CVEGEO": "1101800430041800", "CVE_ENT": "11", "CVE_MUN": "018", "CVE_LOC": "0043", "CVE_AGEB": "0041", "NOMGEO_1": "Zamalea" }, "geometry": { "type": "Point", "coordinates": [ -101.069, 20.314987500000029 ] } },
{ "type": "Feature", "properties": { "OBJECTID": 7, "CVEGEO": "1102010770938800", "CVE_ENT": "11", "CVE_MUN": "020", "CVE_LOC": "1077", "CVE_AGEB": "0938", "NOMGEO_1": "Segoviano" }, "geometry": { "type": "Point", "coordinates": [ -101.694099167, 21.075898333000055 ] } },
{ "type": "Feature", "properties": { "OBJECTID": 8, "CVEGEO": "1102903410083800", "CVE_ENT": "11", "CVE_MUN": "029", "CVE_LOC": "0341", "CVE_AGEB": "0083", "NOMGEO_1": "El Relicario" }, "geometry": { "type": "Point", "coordinates": [ -100.88958, 21.454143611000063 ] } },
{ "type": "Feature", "properties": { "OBJECTID": 9, "CVEGEO": "1103006760154800", "CVE_ENT": "11", "CVE_MUN": "030", "CVE_LOC": "0676", "CVE_AGEB": "0154", "NOMGEO_1": "El Rincon" }, "geometry": { "type": "Point", "coordinates": [ -101.280886943999974, 21.423127222000062 ] } },
{ "type": "Feature", "properties": { "OBJECTID": 10, "CVEGEO": "1103101310081800", "CVE_ENT": "11", "CVE_MUN": "031", "CVE_LOC": "0131", "CVE_AGEB": "0081", "NOMGEO_1": "La Mora" }, "geometry": { "type": "Point", "coordinates": [ -101.725259721999976, 20.920069445000024 ] } },
{ "type": "Feature", "properties": { "OBJECTID": 11, "CVEGEO": "1103305580067800", "CVE_ENT": "11", "CVE_MUN": "033", "CVE_LOC": "0558", "CVE_AGEB": "0067", "NOMGEO_1": "Nogales" }, "geometry": { "type": "Point", "coordinates": [ -100.316886666999949, 21.540514722000069 ] } },
{ "type": "Feature", "properties": { "OBJECTID": 12, "CVEGEO": "1103308430194800", "CVE_ENT": "11", "CVE_MUN": "033", "CVE_LOC": "0843", "CVE_AGEB": "0194", "NOMGEO_1": "El Rosario" }, "geometry": { "type": "Point", "coordinates": [ -100.591090832999953, 21.213690277000069 ] } },
{ "type": "Feature", "properties": { "OBJECTID": 13, "CVEGEO": "110010002003A800", "CVE_ENT": "11", "CVE_MUN": "001", "CVE_LOC": "0002", "CVE_AGEB": "003A", "NOMGEO_1": "Estacion Abasolo" }, "geometry": { "type": "Point", "coordinates": [ -101.573187221999945, 20.504960556000071 ] } },
{ "type": "Feature", "properties": { "OBJECTID": 14, "CVEGEO": "1100100030044800", "CVE_ENT": "11", "CVE_MUN": "001", "CVE_LOC": "0003", "CVE_AGEB": "0044", "NOMGEO_1": "Agua Blanca" }, "geometry": { "type": "Point", "coordinates": [ -101.505195832999959, 20.436087222000026 ] } },
{ "type": "Feature", "properties": { "OBJECTID": 15, "CVEGEO": "1100100050025800", "CVE_ENT": "11", "CVE_MUN": "001", "CVE_LOC": "0005", "CVE_AGEB": "0025", "NOMGEO_1": "San Francisco de Horta (El Alacran)" }, "geometry": { "type": "Point", "coordinates": [ -101.554897499999981, 20.575191944000039 ] } },
{ "type": "Feature", "properties": { "OBJECTID": 16, "CVEGEO": "1100100060010800", "CVE_ENT": "11", "CVE_MUN": "001", "CVE_LOC": "0006", "CVE_AGEB": "0010", "NOMGEO_1": "Alameda de Alvarez" }, "geometry": { "type": "Point", "coordinates": [ -101.578516666999974, 20.682128889000069 ] } },
{ "type": "Feature", "properties": { "OBJECTID": 17, "CVEGEO": "1100100100010800", "CVE_ENT": "11", "CVE_MUN": "001", "CVE_LOC": "0010", "CVE_AGEB": "0010", "NOMGEO_1": "Alto de Chamacua" }, "geometry": { "type": "Point", "coordinates": [ -101.576357777999988, 20.682202500000074 ] } },
{ "type": "Feature", "properties": { "OBJECTID": 18, "CVEGEO": "1100100120025800", "CVE_ENT": "11", "CVE_MUN": "001", "CVE_LOC": "0012", "CVE_AGEB": "0025", "NOMGEO_1": "Alto de San Jose de Gonzalez" }, "geometry": { "type": "Point", "coordinates": [ -101.536073610999949, 20.577866111000048 ] } },
{ "type": "Feature", "properties": { "OBJECTID": 19, "CVEGEO": "1100100140082800", "CVE_ENT": "11", "CVE_MUN": "001", "CVE_LOC": "0014", "CVE_AGEB": "0082", "NOMGEO_1": "Berumbo" }, "geometry": { "type": "Point", "coordinates": [ -101.632166110999947, 20.347808611000062 ] } },
{ "type": "Feature", "properties": { "OBJECTID": 20, "CVEGEO": "1100100150078800", "CVE_ENT": "11", "CVE_MUN": "001", "CVE_LOC": "0015", "CVE_AGEB": "0078", "NOMGEO_1": "Boquillas" }, "geometry": { "type": "Point", "coordinates": [ -101.43276777799997, 20.41697083300005 ] } },
{ "type": "Feature", "properties": { "OBJECTID": 21, "CVEGEO": "1100100160078800", "CVE_ENT": "11", "CVE_MUN": "001", "CVE_LOC": "0016", "CVE_AGEB": "0078", "NOMGEO_1": "La Brisa" }, "geometry": { "type": "Point", "coordinates": [ -101.390207778, 20.44186 ] } },
{ "type": "Feature", "properties": { "OBJECTID": 22, "CVEGEO": "1100100180082800", "CVE_ENT": "11", "CVE_MUN": "001", "CVE_LOC": "0018", "CVE_AGEB": "0082", "NOMGEO_1": "Buenavista de Chavez" }, "geometry": { "type": "Point", "coordinates": [ -101.551038610999967, 20.413323333000051 ] } },
{ "type": "Feature", "properties": { "OBJECTID": 23, "CVEGEO": "110010019003A800", "CVE_ENT": "11", "CVE_MUN": "001", "CVE_LOC": "0019", "CVE_AGEB": "003A", "NOMGEO_1": "Buenavista de Vega (Las Conejas)" }, "geometry": { "type": "Point", "coordinates": [ -101.549125832999948, 20.520961111000076 ] } },
{ "type": "Feature", "properties": { "OBJECTID": 24, "CVEGEO": "1100100230025800", "CVE_ENT": "11", "CVE_MUN": "001", "CVE_LOC": "0023", "CVE_AGEB": "0025", "NOMGEO_1": "La Carroza" }, "geometry": { "type": "Point", "coordinates": [ -101.591528332999985, 20.566180556000063 ] } },
{ "type": "Feature", "properties": { "OBJECTID": 25, "CVEGEO": "1100100270082800", "CVE_ENT": "11", "CVE_MUN": "001", "CVE_LOC": "0027", "CVE_AGEB": "0082", "NOMGEO_1": "Cerritos de Aceves" }, "geometry": { "type": "Point", "coordinates": [ -101.617071943999974, 20.327880556000025 ] } },
{ "type": "Feature", "properties": { "OBJECTID": 26, "CVEGEO": "1100100280010800", "CVE_ENT": "11", "CVE_MUN": "001", "CVE_LOC": "0028", "CVE_AGEB": "0010", "NOMGEO_1": "Cofradia de Guerra" }, "geometry": { "type": "Point", "coordinates": [ -101.527799166999955, 20.652294167000036 ] } },
{ "type": "Feature", "properties": { "OBJECTID": 27, "CVEGEO": "1100100290078800", "CVE_ENT": "11", "CVE_MUN": "001", "CVE_LOC": "0029", "CVE_AGEB": "0078", "NOMGEO_1": "Cofradia de Peralta" }, "geometry": { "type": "Point", "coordinates": [ -101.428016110999977, 20.500874723000038 ] } },
{ "type": "Feature", "properties": { "OBJECTID": 28, "CVEGEO": "110010032003A800", "CVE_ENT": "11", "CVE_MUN": "001", "CVE_LOC": "0032", "CVE_AGEB": "003A", "NOMGEO_1": "Las Cruces" }, "geometry": { "type": "Point", "coordinates": [ -101.573917221999977, 20.532136389000073 ] } },
{ "type": "Feature", "properties": { "OBJECTID": 29, "CVEGEO": "1100100330010800", "CVE_ENT": "11", "CVE_MUN": "001", "CVE_LOC": "0033", "CVE_AGEB": "0010", "NOMGEO_1": "Chamacua" }, "geometry": { "type": "Point", "coordinates": [ -101.566941388999965, 20.673720834000051 ] } },
{ "type": "Feature", "properties": { "OBJECTID": 30, "CVEGEO": "110010034003A800", "CVE_ENT": "11", "CVE_MUN": "001", "CVE_LOC": "0034", "CVE_AGEB": "003A", "NOMGEO_1": "La Chinche" }, "geometry": { "type": "Point", "coordinates": [ -101.548910832999979, 20.479241666000064 ] } },
{ "type": "Feature", "properties": { "OBJECTID": 31, "CVEGEO": "1100100350082800", "CVE_ENT": "11", "CVE_MUN": "001", "CVE_LOC": "0035", "CVE_AGEB": "0082", "NOMGEO_1": "Emiliano Zapata (La Colonia)" }, "geometry": { "type": "Point", "coordinates": [ -101.551290277999954, 20.417831945000046 ] } },
{ "type": "Feature", "properties": { "OBJECTID": 32, "CVEGEO": "1100100360082800", "CVE_ENT": "11", "CVE_MUN": "001", "CVE_LOC": "0036", "CVE_AGEB": "0082", "NOMGEO_1": "El Encinal" }, "geometry": { "type": "Point", "coordinates": [ -101.555534166999962, 20.404525 ] } },
{ "type": "Feature", "properties": { "OBJECTID": 33, "CVEGEO": "1100100370078800", "CVE_ENT": "11", "CVE_MUN": "001", "CVE_LOC": "0037", "CVE_AGEB": "0078", "NOMGEO_1": "La Escondida (Las Bodegas)" }, "geometry": { "type": "Point", "coordinates": [ -101.441111110999941, 20.465833333000035 ] } },
{ "type": "Feature", "properties": { "OBJECTID": 34, "CVEGEO": "1100100390025800", "CVE_ENT": "11", "CVE_MUN": "001", "CVE_LOC": "0039", "CVE_AGEB": "0025", "NOMGEO_1": "La Trinidad de San Miguel" }, "geometry": { "type": "Point", "coordinates": [ -101.479353610999965, 20.572290556000041 ] } },
{ "type": "Feature", "properties": { "OBJECTID": 35, "CVEGEO": "1100100400078800", "CVE_ENT": "11", "CVE_MUN": "001", "CVE_LOC": "0040", "CVE_AGEB": "0078", "NOMGEO_1": "Las Estacas" }, "geometry": { "type": "Point", "coordinates": [ -101.415145277999954, 20.388945278000051 ] } },
{ "type": "Feature", "properties": { "OBJECTID": 36, "CVEGEO": "1100100440044800", "CVE_ENT": "11", "CVE_MUN": "001", "CVE_LOC": "0044", "CVE_AGEB": "0044", "NOMGEO_1": "Florida de Gomez" }, "geometry": { "type": "Point", "coordinates": [ -101.523443332999989, 20.515981945000078 ] } },
{ "type": "Feature", "properties": { "OBJECTID": 37, "CVEGEO": "1100100450025800", "CVE_ENT": "11", "CVE_MUN": "001", "CVE_LOC": "0045", "CVE_AGEB": "0025", "NOMGEO_1": "La Florida de Gonzalez" }, "geometry": { "type": "Point", "coordinates": [ -101.569285832999981, 20.57056805600007 ] } },
{ "type": "Feature", "properties": { "OBJECTID": 38, "CVEGEO": "110010046003A800", "CVE_ENT": "11", "CVE_MUN": "001", "CVE_LOC": "0046", "CVE_AGEB": "003A", "NOMGEO_1": "El Fresno" }, "geometry": { "type": "Point", "coordinates": [ -101.541498055999966, 20.53914750000007 ] } },
{ "type": "Feature", "properties": { "OBJECTID": 39, "CVEGEO": "110010049003A800", "CVE_ENT": "11", "CVE_MUN": "001", "CVE_LOC": "0049", "CVE_AGEB": "003A", "NOMGEO_1": "La Galera de Gallardo" }, "geometry": { "type": "Point", "coordinates": [ -101.569735277999939, 20.444414166000058 ] } },
{ "type": "Feature", "properties": { "OBJECTID": 40, "CVEGEO": "1100100500082800", "CVE_ENT": "11", "CVE_MUN": "001", "CVE_LOC": "0050", "CVE_AGEB": "0082", "NOMGEO_1": "El Gallito (El Pitahayo)" }, "geometry": { "type": "Point", "coordinates": [ -101.590718888999959, 20.42493722200004 ] } },
{ "type": "Feature", "properties": { "OBJECTID": 41, "CVEGEO": "1100100510044800", "CVE_ENT": "11", "CVE_MUN": "001", "CVE_LOC": "0051", "CVE_AGEB": "0044", "NOMGEO_1": "La Gloria" }, "geometry": { "type": "Point", "coordinates": [ -101.499178332999975, 20.439826389000075 ] } },
{ "type": "Feature", "properties": { "OBJECTID": 42, "CVEGEO": "1100100520044800", "CVE_ENT": "11", "CVE_MUN": "001", "CVE_LOC": "0052", "CVE_AGEB": "0044", "NOMGEO_1": "Gomez de Orozco" }, "geometry": { "type": "Point", "coordinates": [ -101.513224721999961, 20.512588611000069 ] } },
{ "type": "Feature", "properties": { "OBJECTID": 43, "CVEGEO": "1100100550025800", "CVE_ENT": "11", "CVE_MUN": "001", "CVE_LOC": "0055", "CVE_AGEB": "0025", "NOMGEO_1": "Colonia Hermosillo" }, "geometry": { "type": "Point", "coordinates": [ -101.529134721999981, 20.579601667000077 ] } },
{ "type": "Feature", "properties": { "OBJECTID": 44, "CVEGEO": "1100100560025800", "CVE_ENT": "11", "CVE_MUN": "001", "CVE_LOC": "0056", "CVE_AGEB": "0025", "NOMGEO_1": "Horta (San Antonio de Horta)" }, "geometry": { "type": "Point", "coordinates": [ -101.511051388999988, 20.627818056000024 ] } },
{ "type": "Feature", "properties": { "OBJECTID": 45, "CVEGEO": "110010057003A800", "CVE_ENT": "11", "CVE_MUN": "001", "CVE_LOC": "0057", "CVE_AGEB": "003A", "NOMGEO_1": "Huitzatarito" }, "geometry": { "type": "Point", "coordinates": [ -101.566962499999988, 20.497654444000034 ] } },
{ "type": "Feature", "properties": { "OBJECTID": 46, "CVEGEO": "1100100580025800", "CVE_ENT": "11", "CVE_MUN": "001", "CVE_LOC": "0058", "CVE_AGEB": "0025", "NOMGEO_1": "Estacion Joaquin" }, "geometry": { "type": "Point", "coordinates": [ -101.520392221999941, 20.561403333000044 ] } },
{ "type": "Feature", "properties": { "OBJECTID": 47, "CVEGEO": "1100100590010800", "CVE_ENT": "11", "CVE_MUN": "001", "CVE_LOC": "0059", "CVE_AGEB": "0010", "NOMGEO_1": "La Joya de Calvillo" }, "geometry": { "type": "Point", "coordinates": [ -101.609425832999989, 20.749712222000028 ] } },
{ "type": "Feature", "properties": { "OBJECTID": 48, "CVEGEO": "1100100600078800", "CVE_ENT": "11", "CVE_MUN": "001", "CVE_LOC": "0060", "CVE_AGEB": "0078", "NOMGEO_1": "Labor de Peralta" }, "geometry": { "type": "Point", "coordinates": [ -101.408861943999966, 20.407115278000049 ] } },
{ "type": "Feature", "properties": { "OBJECTID": 49, "CVEGEO": "1100100610082800", "CVE_ENT": "11", "CVE_MUN": "001", "CVE_LOC": "0061", "CVE_AGEB": "0082", "NOMGEO_1": "Lagunilla de Mireles" }, "geometry": { "type": "Point", "coordinates": [ -101.578448610999942, 20.41610361100004 ] } },
{ "type": "Feature", "properties": { "OBJECTID": 50, "CVEGEO": "1100100640078800", "CVE_ENT": "11", "CVE_MUN": "001", "CVE_LOC": "0064", "CVE_AGEB": "0078", "NOMGEO_1": "Los Leones" }, "geometry": { "type": "Point", "coordinates": [ -101.451673888999949, 20.498057778000032 ] } },
{ "type": "Feature", "properties": { "OBJECTID": 51, "CVEGEO": "1100100710044800", "CVE_ENT": "11", "CVE_MUN": "001", "CVE_LOC": "0071", "CVE_AGEB": "0044", "NOMGEO_1": "La Marana" }, "geometry": { "type": "Point", "coordinates": [ -101.54427138899996, 20.47762 ] } },
{ "type": "Feature", "properties": { "OBJECTID": 52, "CVEGEO": "1100100720082800", "CVE_ENT": "11", "CVE_MUN": "001", "CVE_LOC": "0072", "CVE_AGEB": "0082", "NOMGEO_1": "Maravillas (Maravillas de Cabrera)" }, "geometry": { "type": "Point", "coordinates": [ -101.598137222, 20.342453611000053 ] } },
{ "type": "Feature", "properties": { "OBJECTID": 53, "CVEGEO": "1100100730025800", "CVE_ENT": "11", "CVE_MUN": "001", "CVE_LOC": "0073", "CVE_AGEB": "0025", "NOMGEO_1": "Marfil" }, "geometry": { "type": "Point", "coordinates": [ -101.525171943999965, 20.554675556000063 ] } },
{ "type": "Feature", "properties": { "OBJECTID": 54, "CVEGEO": "1100100740082800", "CVE_ENT": "11", "CVE_MUN": "001", "CVE_LOC": "0074", "CVE_AGEB": "0082", "NOMGEO_1": "Maritas" }, "geometry": { "type": "Point", "coordinates": [ -101.601599166999961, 20.312746111000024 ] } },
{ "type": "Feature", "properties": { "OBJECTID": 55, "CVEGEO": "1100100750025800", "CVE_ENT": "11", "CVE_MUN": "001", "CVE_LOC": "0075", "CVE_AGEB": "0025", "NOMGEO_1": "Las Masas (La Luz Masas)" }, "geometry": { "type": "Point", "coordinates": [ -101.543764722, 20.597820833000071 ] } },
{ "type": "Feature", "properties": { "OBJECTID": 56, "CVEGEO": "1100100770044800", "CVE_ENT": "11", "CVE_MUN": "001", "CVE_LOC": "0077", "CVE_AGEB": "0044", "NOMGEO_1": "Las Mesas (Buena Vista de Vaca)" }, "geometry": { "type": "Point", "coordinates": [ -101.49801611099997, 20.42916305600005 ] } },
{ "type": "Feature", "properties": { "OBJECTID": 57, "CVEGEO": "1100100800082800", "CVE_ENT": "11", "CVE_MUN": "001", "CVE_LOC": "0080", "CVE_AGEB": "0082", "NOMGEO_1": "La Mina" }, "geometry": { "type": "Point", "coordinates": [ -101.548723888999973, 20.420648611000047 ] } },
{ "type": "Feature", "properties": { "OBJECTID": 58, "CVEGEO": "1100100830082800", "CVE_ENT": "11", "CVE_MUN": "001", "CVE_LOC": "0083", "CVE_AGEB": "0082", "NOMGEO_1": "San Antonio de las Huertas (El Manicomio)" }, "geometry": { "type": "Point", "coordinates": [ -101.622661388999973, 20.355383611000036 ] } },
{ "type": "Feature", "properties": { "OBJECTID": 59, "CVEGEO": "1100100840044800", "CVE_ENT": "11", "CVE_MUN": "001", "CVE_LOC": "0084", "CVE_AGEB": "0044", "NOMGEO_1": "La Mora" }, "geometry": { "type": "Point", "coordinates": [ -101.523172499999987, 20.483692500000075 ] } },
{ "type": "Feature", "properties": { "OBJECTID": 60, "CVEGEO": "1100100850082800", "CVE_ENT": "11", "CVE_MUN": "001", "CVE_LOC": "0085", "CVE_AGEB": "0082", "NOMGEO_1": "Morales" }, "geometry": { "type": "Point", "coordinates": [ -101.615926943999966, 20.37759055600003 ] } },
{ "type": "Feature", "properties": { "OBJECTID": 61, "CVEGEO": "1100100870025800", "CVE_ENT": "11", "CVE_MUN": "001", "CVE_LOC": "0087", "CVE_AGEB": "0025", "NOMGEO_1": "Nombre de Dios" }, "geometry": { "type": "Point", "coordinates": [ -101.533547777999956, 20.550723333000064 ] } },
{ "type": "Feature", "properties": { "OBJECTID": 62, "CVEGEO": "1100100900010800", "CVE_ENT": "11", "CVE_MUN": "001", "CVE_LOC": "0090", "CVE_AGEB": "0010", "NOMGEO_1": "Ojo de Agua de Huanumo (El Torreon)" }, "geometry": { "type": "Point", "coordinates": [ -101.612088055999948, 20.724633889000074 ] } },
{ "type": "Feature", "properties": { "OBJECTID": 63, "CVEGEO": "1100100910078800", "CVE_ENT": "11", "CVE_MUN": "001", "CVE_LOC": "0091", "CVE_AGEB": "0078", "NOMGEO_1": "La Ordena" }, "geometry": { "type": "Point", "coordinates": [ -101.40939777799997, 20.490601388000073 ] } },
{ "type": "Feature", "properties": { "OBJECTID": 64, "CVEGEO": "110010094003A800", "CVE_ENT": "11", "CVE_MUN": "001", "CVE_LOC": "0094", "CVE_AGEB": "003A", "NOMGEO_1": "El Paraiso (San Jose)" }, "geometry": { "type": "Point", "coordinates": [ -101.588970556, 20.439153889000067 ] } },
{ "type": "Feature", "properties": { "OBJECTID": 65, "CVEGEO": "110010095003A800", "CVE_ENT": "11", "CVE_MUN": "001", "CVE_LOC": "0095", "CVE_AGEB": "003A", "NOMGEO_1": "Pintores (Rafael Saavedra)" }, "geometry": { "type": "Point", "coordinates": [ -101.586850555999945, 20.480570556000032 ] } },
{ "type": "Feature", "properties": { "OBJECTID": 66, "CVEGEO": "1100100970078800", "CVE_ENT": "11", "CVE_MUN": "001", "CVE_LOC": "0097", "CVE_AGEB": "0078", "NOMGEO_1": "El Penon" }, "geometry": { "type": "Point", "coordinates": [ -101.449367499999937, 20.49232777800006 ] } },
{ "type": "Feature", "properties": { "OBJECTID": 67, "CVEGEO": "1100100990078800", "CVE_ENT": "11", "CVE_MUN": "001", "CVE_LOC": "0099", "CVE_AGEB": "0078", "NOMGEO_1": "Peralta" }, "geometry": { "type": "Point", "coordinates": [ -101.407911943999977, 20.474592500000028 ] } },
{ "type": "Feature", "properties": { "OBJECTID": 68, "CVEGEO": "1100101000078800", "CVE_ENT": "11", "CVE_MUN": "001", "CVE_LOC": "0100", "CVE_AGEB": "0078", "NOMGEO_1": "Piedras Negras" }, "geometry": { "type": "Point", "coordinates": [ -101.390941667, 20.429624167000043 ] } },
{ "type": "Feature", "properties": { "OBJECTID": 69, "CVEGEO": "110010104003A800", "CVE_ENT": "11", "CVE_MUN": "001", "CVE_LOC": "0104", "CVE_AGEB": "003A", "NOMGEO_1": "El Pitahayo de Cortes" }, "geometry": { "type": "Point", "coordinates": [ -101.568613332999973, 20.468749444000025 ] } },
{ "type": "Feature", "properties": { "OBJECTID": 70, "CVEGEO": "1100101050082800", "CVE_ENT": "11", "CVE_MUN": "001", "CVE_LOC": "0105", "CVE_AGEB": "0082", "NOMGEO_1": "Las Palomas" }, "geometry": { "type": "Point", "coordinates": [ -101.56662666699998, 20.416807500000061 ] } },
{ "type": "Feature", "properties": { "OBJECTID": 71, "CVEGEO": "1100101060082800", "CVE_ENT": "11", "CVE_MUN": "001", "CVE_LOC": "0106", "CVE_AGEB": "0082", "NOMGEO_1": "Paso de Piedra" }, "geometry": { "type": "Point", "coordinates": [ -101.612830278, 20.386208056000044 ] } },
{ "type": "Feature", "properties": { "OBJECTID": 72, "CVEGEO": "110010108003A800", "CVE_ENT": "11", "CVE_MUN": "001", "CVE_LOC": "0108", "CVE_AGEB": "003A", "NOMGEO_1": "La Puente" }, "geometry": { "type": "Point", "coordinates": [ -101.605567222, 20.442591667000045 ] } },
{ "type": "Feature", "properties": { "OBJECTID": 73, "CVEGEO": "1100101090044800", "CVE_ENT": "11", "CVE_MUN": "001", "CVE_LOC": "0109", "CVE_AGEB": "0044", "NOMGEO_1": "Puerta de Palo Dulce" }, "geometry": { "type": "Point", "coordinates": [ -101.504650555999945, 20.480834445000028 ] } },
{ "type": "Feature", "properties": { "OBJECTID": 74, "CVEGEO": "1100101100010800", "CVE_ENT": "11", "CVE_MUN": "001", "CVE_LOC": "0110", "CVE_AGEB": "0010", "NOMGEO_1": "Puerto de la Cruz" }, "geometry": { "type": "Point", "coordinates": [ -101.585360832999982, 20.702326667000023 ] } },
{ "type": "Feature", "properties": { "OBJECTID": 75, "CVEGEO": "1100101150010800", "CVE_ENT": "11", "CVE_MUN": "001", "CVE_LOC": "0115", "CVE_AGEB": "0010", "NOMGEO_1": "Rancho de Gonzalez" }, "geometry": { "type": "Point", "coordinates": [ -101.606686666999963, 20.690759445000026 ] } },
{ "type": "Feature", "properties": { "OBJECTID": 76, "CVEGEO": "110010118003A800", "CVE_ENT": "11", "CVE_MUN": "001", "CVE_LOC": "0118", "CVE_AGEB": "003A", "NOMGEO_1": "El Refugio de Ayala (Luz de Ayala)" }, "geometry": { "type": "Point", "coordinates": [ -101.61, 20.470555556000022 ] } },
{ "type": "Feature", "properties": { "OBJECTID": 77, "CVEGEO": "1100101190082800", "CVE_ENT": "11", "CVE_MUN": "001", "CVE_LOC": "0119", "CVE_AGEB": "0082", "NOMGEO_1": "Rincon de Martinez" }, "geometry": { "type": "Point", "coordinates": [ -101.578145555999981, 20.326947222000058 ] } },
{ "type": "Feature", "properties": { "OBJECTID": 78, "CVEGEO": "1100101200082800", "CVE_ENT": "11", "CVE_MUN": "001", "CVE_LOC": "0120", "CVE_AGEB": "0082", "NOMGEO_1": "La Rosa de Camacho" }, "geometry": { "type": "Point", "coordinates": [ -101.593319166999947, 20.418301944000063 ] } },
{ "type": "Feature", "properties": { "OBJECTID": 79, "CVEGEO": "1100101220082800", "CVE_ENT": "11", "CVE_MUN": "001", "CVE_LOC": "0122", "CVE_AGEB": "0082", "NOMGEO_1": "Salitre de Saavedra" }, "geometry": { "type": "Point", "coordinates": [ -101.637213888999952, 20.36833861100007 ] } },
{ "type": "Feature", "properties": { "OBJECTID": 80, "CVEGEO": "1100101230025800", "CVE_ENT": "11", "CVE_MUN": "001", "CVE_LOC": "0123", "CVE_AGEB": "0025", "NOMGEO_1": "La Salud" }, "geometry": { "type": "Point", "coordinates": [ -101.539864443999988, 20.602429722000068 ] } },
{ "type": "Feature", "properties": { "OBJECTID": 81, "CVEGEO": "110010124003A800", "CVE_ENT": "11", "CVE_MUN": "001", "CVE_LOC": "0124", "CVE_AGEB": "003A", "NOMGEO_1": "San Agustin" }, "geometry": { "type": "Point", "coordinates": [ -101.508620277999967, 20.541899167000054 ] } },
{ "type": "Feature", "properties": { "OBJECTID": 82, "CVEGEO": "1100101250044800", "CVE_ENT": "11", "CVE_MUN": "001", "CVE_LOC": "0125", "CVE_AGEB": "0044", "NOMGEO_1": "San Andres de Gomez" }, "geometry": { "type": "Point", "coordinates": [ -101.491486943999973, 20.501788333000036 ] } },
{ "type": "Feature", "properties": { "OBJECTID": 83, "CVEGEO": "1100101310078800", "CVE_ENT": "11", "CVE_MUN": "001", "CVE_LOC": "0131", "CVE_AGEB": "0078", "NOMGEO_1": "San Antonio de Peralta" }, "geometry": { "type": "Point", "coordinates": [ -101.435228055999971, 20.478775833000043 ] } },
{ "type": "Feature", "properties": { "OBJECTID": 84, "CVEGEO": "1100101320044800", "CVE_ENT": "11", "CVE_MUN": "001", "CVE_LOC": "0132", "CVE_AGEB": "0044", "NOMGEO_1": "Mogotes" }, "geometry": { "type": "Point", "coordinates": [ -101.477580833, 20.491498611000054 ] } },
{ "type": "Feature", "properties": { "OBJECTID": 85, "CVEGEO": "1100101330078800", "CVE_ENT": "11", "CVE_MUN": "001", "CVE_LOC": "0133", "CVE_AGEB": "0078", "NOMGEO_1": "San Aparicio" }, "geometry": { "type": "Point", "coordinates": [ -101.430301666999981, 20.483848055000067 ] } },
{ "type": "Feature", "properties": { "OBJECTID": 86, "CVEGEO": "1100101340044800", "CVE_ENT": "11", "CVE_MUN": "001", "CVE_LOC": "0134", "CVE_AGEB": "0044", "NOMGEO_1": "San Bernardo Pena Blanca" }, "geometry": { "type": "Point", "coordinates": [ -101.482956110999964, 20.461769722000042 ] } },
{ "type": "Feature", "properties": { "OBJECTID": 87, "CVEGEO": "110010137003A800", "CVE_ENT": "11", "CVE_MUN": "001", "CVE_LOC": "0137", "CVE_AGEB": "003A", "NOMGEO_1": "Paraiso de Ninez" }, "geometry": { "type": "Point", "coordinates": [ -101.524135555999976, 20.541723334000039 ] } },
{ "type": "Feature", "properties": { "OBJECTID": 88, "CVEGEO": "1100101380044800", "CVE_ENT": "11", "CVE_MUN": "001", "CVE_LOC": "0138", "CVE_AGEB": "0044", "NOMGEO_1": "San Fernando de Aguirre" }, "geometry": { "type": "Point", "coordinates": [ -101.512356389, 20.534023055000034 ] } },
{ "type": "Feature", "properties": { "OBJECTID": 89, "CVEGEO": "1100101390082800", "CVE_ENT": "11", "CVE_MUN": "001", "CVE_LOC": "0139", "CVE_AGEB": "0082", "NOMGEO_1": "San Fernando de Cerda" }, "geometry": { "type": "Point", "coordinates": [ -101.608146666999971, 20.363438889000065 ] } },
{ "type": "Feature", "properties": { "OBJECTID": 90, "CVEGEO": "1100101400025800", "CVE_ENT": "11", "CVE_MUN": "001", "CVE_LOC": "0140", "CVE_AGEB": "0025", "NOMGEO_1": "San Francisco de Horta (El Gato)" }, "geometry": { "type": "Point", "coordinates": [ -101.52935, 20.622535 ] } },
{ "type": "Feature", "properties": { "OBJECTID": 91, "CVEGEO": "1100101410010800", "CVE_ENT": "11", "CVE_MUN": "001", "CVE_LOC": "0141", "CVE_AGEB": "0010", "NOMGEO_1": "San Francisco de la Soledad" }, "geometry": { "type": "Point", "coordinates": [ -101.624003888999937, 20.683043889000032 ] } },
{ "type": "Feature", "properties": { "OBJECTID": 92, "CVEGEO": "1100101420044800", "CVE_ENT": "11", "CVE_MUN": "001", "CVE_LOC": "0142", "CVE_AGEB": "0044", "NOMGEO_1": "San Isidro" }, "geometry": { "type": "Point", "coordinates": [ -101.494204166999964, 20.463008056000035 ] } },
{ "type": "Feature", "properties": { "OBJECTID": 93, "CVEGEO": "1100101460044800", "CVE_ENT": "11", "CVE_MUN": "001", "CVE_LOC": "0146", "CVE_AGEB": "0044", "NOMGEO_1": "San Jorge" }, "geometry": { "type": "Point", "coordinates": [ -101.53736194399994, 20.466845556000067 ] } },
{ "type": "Feature", "properties": { "OBJECTID": 94, "CVEGEO": "1100101470044800", "CVE_ENT": "11", "CVE_MUN": "001", "CVE_LOC": "0147", "CVE_AGEB": "0044", "NOMGEO_1": "San Jose de Gomez" }, "geometry": { "type": "Point", "coordinates": [ -101.503589166999973, 20.497028889000035 ] } },
{ "type": "Feature", "properties": { "OBJECTID": 95, "CVEGEO": "110010149003A800", "CVE_ENT": "11", "CVE_MUN": "001", "CVE_LOC": "0149", "CVE_AGEB": "003A", "NOMGEO_1": "San Jose de Ruiz" }, "geometry": { "type": "Point", "coordinates": [ -101.582836666999981, 20.43856583400003 ] } },
{ "type": "Feature", "properties": { "OBJECTID": 96, "CVEGEO": "1100101500044800", "CVE_ENT": "11", "CVE_MUN": "001", "CVE_LOC": "0150", "CVE_AGEB": "0044", "NOMGEO_1": "San Lorenzo (San Nicolas de Ayala)" }, "geometry": { "type": "Point", "coordinates": [ -101.463857221999945, 20.465656111000044 ] } },
{ "type": "Feature", "properties": { "OBJECTID": 97, "CVEGEO": "1100101520044800", "CVE_ENT": "11", "CVE_MUN": "001", "CVE_LOC": "0152", "CVE_AGEB": "0044", "NOMGEO_1": "San Nicolas de los Rosales (La Cabra)" }, "geometry": { "type": "Point", "coordinates": [ -101.467896943999961, 20.442326389000073 ] } },
{ "type": "Feature", "properties": { "OBJECTID": 98, "CVEGEO": "110010157003A800", "CVE_ENT": "11", "CVE_MUN": "001", "CVE_LOC": "0157", "CVE_AGEB": "003A", "NOMGEO_1": "Santa Barbara" }, "geometry": { "type": "Point", "coordinates": [ -101.593822777999947, 20.522995278000053 ] } },
{ "type": "Feature", "properties": { "OBJECTID": 99, "CVEGEO": "1100101590025800", "CVE_ENT": "11", "CVE_MUN": "001", "CVE_LOC": "0159", "CVE_AGEB": "0025", "NOMGEO_1": "Santa Rita" }, "geometry": { "type": "Point", "coordinates": [ -101.494557221999969, 20.584538334000058 ] } },
{ "type": "Feature", "properties": { "OBJECTID": 100, "CVEGEO": "1100101600025800", "CVE_ENT": "11", "CVE_MUN": "001", "CVE_LOC": "0160", "CVE_AGEB": "0025", "NOMGEO_1": "Santa Rosa de Negrete (La Rata)" }, "geometry": { "type": "Point", "coordinates": [ -101.527572499999962, 20.602121667000063 ] } },
{ "type": "Feature", "properties": { "OBJECTID": 101, "CVEGEO": "1100101610078800", "CVE_ENT": "11", "CVE_MUN": "001", "CVE_LOC": "0161", "CVE_AGEB": "0078", "NOMGEO_1": "Santa Rosa" }, "geometry": { "type": "Point", "coordinates": [ -101.459773888999962, 20.45046 ] } },
{ "type": "Feature", "properties": { "OBJECTID": 102, "CVEGEO": "1100101640044800", "CVE_ENT": "11", "CVE_MUN": "001", "CVE_LOC": "0164", "CVE_AGEB": "0044", "NOMGEO_1": "San Telmo de Roa" }, "geometry": { "type": "Point", "coordinates": [ -101.475926388999937, 20.477453611000044 ] } },
{ "type": "Feature", "properties": { "OBJECTID": 103, "CVEGEO": "110010166003A800", "CVE_ENT": "11", "CVE_MUN": "001", "CVE_LOC": "0166", "CVE_AGEB": "003A", "NOMGEO_1": "San Vicente del Cano (San Vicente de Hidalgo)" }, "geometry": { "type": "Point", "coordinates": [ -101.589231110999947, 20.452341666000052 ] } },
{ "type": "Feature", "properties": { "OBJECTID": 104, "CVEGEO": "110010171003A800", "CVE_ENT": "11", "CVE_MUN": "001", "CVE_LOC": "0171", "CVE_AGEB": "003A", "NOMGEO_1": "Soledad de Negrete" }, "geometry": { "type": "Point", "coordinates": [ -101.577443332999962, 20.552243889000067 ] } },
{ "type": "Feature", "properties": { "OBJECTID": 105, "CVEGEO": "1100101720082800", "CVE_ENT": "11", "CVE_MUN": "001", "CVE_LOC": "0172", "CVE_AGEB": "0082", "NOMGEO_1": "Soledad de Vargas" }, "geometry": { "type": "Point", "coordinates": [ -101.591713055999946, 20.395216111000025 ] } },
{ "type": "Feature", "properties": { "OBJECTID": 106, "CVEGEO": "110010174003A800", "CVE_ENT": "11", "CVE_MUN": "001", "CVE_LOC": "0174", "CVE_AGEB": "003A", "NOMGEO_1": "Tamazula" }, "geometry": { "type": "Point", "coordinates": [ -101.551647499999945, 20.439776111000072 ] } },
{ "type": "Feature", "properties": { "OBJECTID": 107, "CVEGEO": "1100101750078800", "CVE_ENT": "11", "CVE_MUN": "001", "CVE_LOC": "0175", "CVE_AGEB": "0078", "NOMGEO_1": "La Tinaja de Negrete" }, "geometry": { "type": "Point", "coordinates": [ -101.463412499999947, 20.454876944000034 ] } },
{ "type": "Feature", "properties": { "OBJECTID": 108, "CVEGEO": "1100101770025800", "CVE_ENT": "11", "CVE_MUN": "001", "CVE_LOC": "0177", "CVE_AGEB": "0025", "NOMGEO_1": "La Trinidad" }, "geometry": { "type": "Point", "coordinates": [ -101.487542499999961, 20.583831111000052 ] } },
{ "type": "Feature", "properties": { "OBJECTID": 109, "CVEGEO": "1100101780010800", "CVE_ENT": "11", "CVE_MUN": "001", "CVE_LOC": "0178", "CVE_AGEB": "0010", "NOMGEO_1": "Trojes de Maranon" }, "geometry": { "type": "Point", "coordinates": [ -101.63381777799998, 20.696361111000044 ] } },
{ "type": "Feature", "properties": { "OBJECTID": 110, "CVEGEO": "110010179003A800", "CVE_ENT": "11", "CVE_MUN": "001", "CVE_LOC": "0179", "CVE_AGEB": "003A", "NOMGEO_1": "El Tule" }, "geometry": { "type": "Point", "coordinates": [ -101.598003888999983, 20.526959444000056 ] } },
{ "type": "Feature", "properties": { "OBJECTID": 111, "CVEGEO": "1100101810082800", "CVE_ENT": "11", "CVE_MUN": "001", "CVE_LOC": "0181", "CVE_AGEB": "0082", "NOMGEO_1": "El Varal" }, "geometry": { "type": "Point", "coordinates": [ -101.602365, 20.34814805600007 ] } },
{ "type": "Feature", "properties": { "OBJECTID": 112, "CVEGEO": "1100101820010800", "CVE_ENT": "11", "CVE_MUN": "001", "CVE_LOC": "0182", "CVE_AGEB": "0010", "NOMGEO_1": "Zapote de la Esperanza" }, "geometry": { "type": "Point", "coordinates": [ -101.542608332999976, 20.661101944000052 ] } },
{ "type": "Feature", "properties": { "OBJECTID": 113, "CVEGEO": "1100101830078800", "CVE_ENT": "11", "CVE_MUN": "001", "CVE_LOC": "0183", "CVE_AGEB": "0078", "NOMGEO_1": "Zapote de Peralta" }, "geometry": { "type": "Point", "coordinates": [ -101.392073332999985, 20.45062583400005 ] } },
{ "type": "Feature", "properties": { "OBJECTID": 114, "CVEGEO": "1100101860082800", "CVE_ENT": "11", "CVE_MUN": "001", "CVE_LOC": "0186", "CVE_AGEB": "0082", "NOMGEO_1": "Vazquez" }, "geometry": { "type": "Point", "coordinates": [ -101.561015832999942, 20.426989723000077 ] } },
{ "type": "Feature", "properties": { "OBJECTID": 115, "CVEGEO": "110010187003A800", "CVE_ENT": "11", "CVE_MUN": "001", "CVE_LOC": "0187", "CVE_AGEB": "003A", "NOMGEO_1": "Cantarranas" }, "geometry": { "type": "Point", "coordinates": [ -101.54792, 20.504917222000074 ] } },
{ "type": "Feature", "properties": { "OBJECTID": 116, "CVEGEO": "1100101880044800", "CVE_ENT": "11", "CVE_MUN": "001", "CVE_LOC": "0188", "CVE_AGEB": "0044", "NOMGEO_1": "Zenzontle" }, "geometry": { "type": "Point", "coordinates": [ -101.47478777799995, 20.474840278000045 ] } },
{ "type": "Feature", "properties": { "OBJECTID": 117, "CVEGEO": "1100101930082800", "CVE_ENT": "11", "CVE_MUN": "001", "CVE_LOC": "0193", "CVE_AGEB": "0082", "NOMGEO_1": "Purisima de Gomez" }, "geometry": { "type": "Point", "coordinates": [ -101.565765832999944, 20.420549167000047 ] } },
{ "type": "Feature", "properties": { "OBJECTID": 118, "CVEGEO": "1100101940078800", "CVE_ENT": "11", "CVE_MUN": "001", "CVE_LOC": "0194", "CVE_AGEB": "0078", "NOMGEO_1": "Jacarandas" }, "geometry": { "type": "Point", "coordinates": [ -101.401362499999948, 20.485671111000045 ] } },
{ "type": "Feature", "properties": { "OBJECTID": 119, "CVEGEO": "1100101950044800", "CVE_ENT": "11", "CVE_MUN": "001", "CVE_LOC": "0195", "CVE_AGEB": "0044", "NOMGEO_1": "Laredo" }, "geometry": { "type": "Point", "coordinates": [ -101.467185277999988, 20.469297222000023 ] } },
{ "type": "Feature", "properties": { "OBJECTID": 120, "CVEGEO": "1100101960010800", "CVE_ENT": "11", "CVE_MUN": "001", "CVE_LOC": "0196", "CVE_AGEB": "0010", "NOMGEO_1": "Loma de la Esperanza" }, "geometry": { "type": "Point", "coordinates": [ -101.5566, 20.659532222000053 ] } },
{ "type": "Feature", "properties": { "OBJECTID": 121, "CVEGEO": "1100101970078800", "CVE_ENT": "11", "CVE_MUN": "001", "CVE_LOC": "0197", "CVE_AGEB": "0078", "NOMGEO_1": "La Luz de Quintana" }, "geometry": { "type": "Point", "coordinates": [ -101.442133332999958, 20.49242722200006 ] } },
{ "type": "Feature", "properties": { "OBJECTID": 122, "CVEGEO": "1100102010044800", "CVE_ENT": "11", "CVE_MUN": "001", "CVE_LOC": "0201", "CVE_AGEB": "0044", "NOMGEO_1": "Granja Navarrete" }, "geometry": { "type": "Point", "coordinates": [ -101.492427221999947, 20.487345278000078 ] } },
{ "type": "Feature", "properties": { "OBJECTID": 123, "CVEGEO": "1100102020044800", "CVE_ENT": "11", "CVE_MUN": "001", "CVE_LOC": "0202", "CVE_AGEB": "0044", "NOMGEO_1": "Los Pinos" }, "geometry": { "type": "Point", "coordinates": [ -101.505188332999978, 20.470024723000051 ] } },
{ "type": "Feature", "properties": { "OBJECTID": 124, "CVEGEO": "1100102030082800", "CVE_ENT": "11", "CVE_MUN": "001", "CVE_LOC": "0203", "CVE_AGEB": "0082", "NOMGEO_1": "San Jose del Varal (Las Pomas Viejas)" }, "geometry": { "type": "Point", "coordinates": [ -101.592960277999964, 20.353208056000028 ] } },
{ "type": "Feature", "properties": { "OBJECTID": 125, "CVEGEO": "110010204003A800", "CVE_ENT": "11", "CVE_MUN": "001", "CVE_LOC": "0204", "CVE_AGEB": "003A", "NOMGEO_1": "La Providencia" }, "geometry": { "type": "Point", "coordinates": [ -101.598954443999958, 20.483340555000041 ] } },
{ "type": "Feature", "properties": { "OBJECTID": 126, "CVEGEO": "1100102060078800", "CVE_ENT": "11", "CVE_MUN": "001", "CVE_LOC": "0206", "CVE_AGEB": "0078", "NOMGEO_1": "Rancho Seco" }, "geometry": { "type": "Point", "coordinates": [ -101.450067777999948, 20.472102500000062 ] } },
{ "type": "Feature", "properties": { "OBJECTID": 127, "CVEGEO": "110010207003A800", "CVE_ENT": "11", "CVE_MUN": "001", "CVE_LOC": "0207", "CVE_AGEB": "003A", "NOMGEO_1": "La Trinidad (Rancho de Juan Jose Orozco)" }, "geometry": { "type": "Point", "coordinates": [ -101.560690832999967, 20.46103944400005 ] } },
{ "type": "Feature", "properties": { "OBJECTID": 128, "CVEGEO": "110010208003A800", "CVE_ENT": "11", "CVE_MUN": "001", "CVE_LOC": "0208", "CVE_AGEB": "003A", "NOMGEO_1": "El Rosario" }, "geometry": { "type": "Point", "coordinates": [ -101.540893610999944, 20.506621389000031 ] } },
{ "type": "Feature", "properties": { "OBJECTID": 129, "CVEGEO": "1100102090078800", "CVE_ENT": "11", "CVE_MUN": "001", "CVE_LOC": "0209", "CVE_AGEB": "0078", "NOMGEO_1": "San Pedro de Mogotes (El Cerrito)" }, "geometry": { "type": "Point", "coordinates": [ -101.457933332999971, 20.487721944000043 ] } },
{ "type": "Feature", "properties": { "OBJECTID": 130, "CVEGEO": "1100102110078800", "CVE_ENT": "11", "CVE_MUN": "001", "CVE_LOC": "0211", "CVE_AGEB": "0078", "NOMGEO_1": "San Cayetano del Carmen (La Roncha)" }, "geometry": { "type": "Point", "coordinates": [ -101.421705832999976, 20.498481111000046 ] } },
{ "type": "Feature", "properties": { "OBJECTID": 131, "CVEGEO": "110010212003A800", "CVE_ENT": "11", "CVE_MUN": "001", "CVE_LOC": "0212", "CVE_AGEB": "003A", "NOMGEO_1": "San Cayetano (La Bruja)" }, "geometry": { "type": "Point", "coordinates": [ -101.584068610999964, 20.525085278000063 ] } },
{ "type": "Feature", "properties": { "OBJECTID": 132, "CVEGEO": "110010213003A800", "CVE_ENT": "11", "CVE_MUN": "001", "CVE_LOC": "0213", "CVE_AGEB": "003A", "NOMGEO_1": "San Felipe" }, "geometry": { "type": "Point", "coordinates": [ -101.560444166999957, 20.465758056000027 ] } },
{ "type": "Feature", "properties": { "OBJECTID": 133, "CVEGEO": "1100102150078800", "CVE_ENT": "11", "CVE_MUN": "001", "CVE_LOC": "0215", "CVE_AGEB": "0078", "NOMGEO_1": "San Isidro de la Rinconada (Chincual)" }, "geometry": { "type": "Point", "coordinates": [ -101.394847499999969, 20.497419722000075 ] } },
{ "type": "Feature", "properties": { "OBJECTID": 134, "CVEGEO": "1100102180044800", "CVE_ENT": "11", "CVE_MUN": "001", "CVE_LOC": "0218", "CVE_AGEB": "0044", "NOMGEO_1": "San Juan de los Olivos (Ricardo Cruz)" }, "geometry": { "type": "Point", "coordinates": [ -101.52539638899998, 20.468580833000033 ] } },
{ "type": "Feature", "properties": { "OBJECTID": 135, "CVEGEO": "110010219003A800", "CVE_ENT": "11", "CVE_MUN": "001", "CVE_LOC": "0219", "CVE_AGEB": "003A", "NOMGEO_1": "Paso de Canoa (San Luis Rey)" }, "geometry": { "type": "Point", "coordinates": [ -101.599540277999949, 20.488099444000056 ] } },
{ "type": "Feature", "properties": { "OBJECTID": 136, "CVEGEO": "1100102200044800", "CVE_ENT": "11", "CVE_MUN": "001", "CVE_LOC": "0220", "CVE_AGEB": "0044", "NOMGEO_1": "San Luis" }, "geometry": { "type": "Point", "coordinates": [ -101.491819443999987, 20.482548889000043 ] } },
{ "type": "Feature", "properties": { "OBJECTID": 137, "CVEGEO": "1100102210025800", "CVE_ENT": "11", "CVE_MUN": "001", "CVE_LOC": "0221", "CVE_AGEB": "0025", "NOMGEO_1": "San Rafael de Horta" }, "geometry": { "type": "Point", "coordinates": [ -101.544597499999952, 20.624815 ] } },
{ "type": "Feature", "properties": { "OBJECTID": 138, "CVEGEO": "110010222003A800", "CVE_ENT": "11", "CVE_MUN": "001", "CVE_LOC": "0222", "CVE_AGEB": "003A", "NOMGEO_1": "San Ramon" }, "geometry": { "type": "Point", "coordinates": [ -101.548430555999971, 20.494061111000065 ] } },
{ "type": "Feature", "properties": { "OBJECTID": 139, "CVEGEO": "1100102230082800", "CVE_ENT": "11", "CVE_MUN": "001", "CVE_LOC": "0223", "CVE_AGEB": "0082", "NOMGEO_1": "Camacho" }, "geometry": { "type": "Point", "coordinates": [ -101.59397888899997, 20.39710666600007 ] } },
{ "type": "Feature", "properties": { "OBJECTID": 140, "CVEGEO": "1100102280082800", "CVE_ENT": "11", "CVE_MUN": "001", "CVE_LOC": "0228", "CVE_AGEB": "0082", "NOMGEO_1": "El Novillero" }, "geometry": { "type": "Point", "coordinates": [ -101.576846388999968, 20.394715833000078 ] } },
{ "type": "Feature", "properties": { "OBJECTID": 141, "CVEGEO": "1100102320078800", "CVE_ENT": "11", "CVE_MUN": "001", "CVE_LOC": "0232", "CVE_AGEB": "0078", "NOMGEO_1": "El Tular" }, "geometry": { "type": "Point", "coordinates": [ -101.408814443999972, 20.508293889000072 ] } },
{ "type": "Feature", "properties": { "OBJECTID": 142, "CVEGEO": "1100102330044800", "CVE_ENT": "11", "CVE_MUN": "001", "CVE_LOC": "0233", "CVE_AGEB": "0044", "NOMGEO_1": "Rancho Nuevo de Castaneda" }, "geometry": { "type": "Point", "coordinates": [ -101.514088889, 20.465868611000076 ] } },
{ "type": "Feature", "properties": { "OBJECTID": 143, "CVEGEO": "1100102350044800", "CVE_ENT": "11", "CVE_MUN": "001", "CVE_LOC": "0235", "CVE_AGEB": "0044", "NOMGEO_1": "El Pilar" }, "geometry": { "type": "Point", "coordinates": [ -101.488716943999975, 20.488560834000054 ] } },
{ "type": "Feature", "properties": { "OBJECTID": 144, "CVEGEO": "110010236003A800", "CVE_ENT": "11", "CVE_MUN": "001", "CVE_LOC": "0236", "CVE_AGEB": "003A", "NOMGEO_1": "San Miguelito de Ayala" }, "geometry": { "type": "Point", "coordinates": [ -101.607020832999979, 20.459761111000034 ] } },
{ "type": "Feature", "properties": { "OBJECTID": 145, "CVEGEO": "110010240003A800", "CVE_ENT": "11", "CVE_MUN": "001", "CVE_LOC": "0240", "CVE_AGEB": "003A", "NOMGEO_1": "Paso de Canoa (Arroyo Seco)" }, "geometry": { "type": "Point", "coordinates": [ -101.595568610999976, 20.496943056000077 ] } },
{ "type": "Feature", "properties": { "OBJECTID": 146, "CVEGEO": "1100102420082800", "CVE_ENT": "11", "CVE_MUN": "001", "CVE_LOC": "0242", "CVE_AGEB": "0082", "NOMGEO_1": "Santa Lucia" }, "geometry": { "type": "Point", "coordinates": [ -101.585968610999942, 20.371734444000026 ] } },
{ "type": "Feature", "properties": { "OBJECTID": 147, "CVEGEO": "1100102440025800", "CVE_ENT": "11", "CVE_MUN": "001", "CVE_LOC": "0244", "CVE_AGEB": "0025", "NOMGEO_1": "Alto de Negrete (El Pujido)" }, "geometry": { "type": "Point", "coordinates": [ -101.536226666999937, 20.56817 ] } },
{ "type": "Feature", "properties": { "OBJECTID": 148, "CVEGEO": "1100102470044800", "CVE_ENT": "11", "CVE_MUN": "001", "CVE_LOC": "0247", "CVE_AGEB": "0044", "NOMGEO_1": "San Jose de Gonzalez" }, "geometry": { "type": "Point", "coordinates": [ -101.523392499999943, 20.498377778000076 ] } },
{ "type": "Feature", "properties": { "OBJECTID": 149, "CVEGEO": "1100102480044800", "CVE_ENT": "11", "CVE_MUN": "001", "CVE_LOC": "0248", "CVE_AGEB": "0044", "NOMGEO_1": "Miraflores" }, "geometry": { "type": "Point", "coordinates": [ -101.530833332999975, 20.51 ] } },
{ "type": "Feature", "properties": { "OBJECTID": 150, "CVEGEO": "110010250003A800", "CVE_ENT": "11", "CVE_MUN": "001", "CVE_LOC": "0250", "CVE_AGEB": "003A", "NOMGEO_1": "El Pedregal" }, "geometry": { "type": "Point", "coordinates": [ -101.580853055999967, 20.45117 ] } },
{ "type": "Feature", "properties": { "OBJECTID": 151, "CVEGEO": "1100102510044800", "CVE_ENT": "11", "CVE_MUN": "001", "CVE_LOC": "0251", "CVE_AGEB": "0044", "NOMGEO_1": "La Chaquira" }, "geometry": { "type": "Point", "coordinates": [ -101.541347221999956, 20.463171111000065 ] } },
{ "type": "Feature", "properties": { "OBJECTID": 152, "CVEGEO": "110010253003A800", "CVE_ENT": "11", "CVE_MUN": "001", "CVE_LOC": "0253", "CVE_AGEB": "003A", "NOMGEO_1": "Pintores" }, "geometry": { "type": "Point", "coordinates": [ -101.59887527799998, 20.477313889000072 ] } },
{ "type": "Feature", "properties": { "OBJECTID": 153, "CVEGEO": "1100102540078800", "CVE_ENT": "11", "CVE_MUN": "001", "CVE_LOC": "0254", "CVE_AGEB": "0078", "NOMGEO_1": "Providencia" }, "geometry": { "type": "Point", "coordinates": [ -101.388227221999955, 20.437418333000039 ] } },
{ "type": "Feature", "properties": { "OBJECTID": 154, "CVEGEO": "1100102560078800", "CVE_ENT": "11", "CVE_MUN": "001", "CVE_LOC": "0256", "CVE_AGEB": "0078", "NOMGEO_1": "San Antonio de la Rinconada (La Mugre)" }, "geometry": { "type": "Point", "coordinates": [ -101.399939443999983, 20.495242500000074 ] } },
{ "type": "Feature", "properties": { "OBJECTID": 155, "CVEGEO": "1100102590082800", "CVE_ENT": "11", "CVE_MUN": "001", "CVE_LOC": "0259", "CVE_AGEB": "0082", "NOMGEO_1": "Las Pomas Nuevas" }, "geometry": { "type": "Point", "coordinates": [ -101.58989, 20.357638889000043 ] } },
{ "type": "Feature", "properties": { "OBJECTID": 156, "CVEGEO": "1100102650082800", "CVE_ENT": "11", "CVE_MUN": "001", "CVE_LOC": "0265", "CVE_AGEB": "0082", "NOMGEO_1": "Lagunillas de Martinez" }, "geometry": { "type": "Point", "coordinates": [ -101.570492221999984, 20.404570278000051 ] } },
{ "type": "Feature", "properties": { "OBJECTID": 157, "CVEGEO": "110010270003A800", "CVE_ENT": "11", "CVE_MUN": "001", "CVE_LOC": "0270", "CVE_AGEB": "003A", "NOMGEO_1": "Celestino Cruz" }, "geometry": { "type": "Point", "coordinates": [ -101.532091943999944, 20.501772222000056 ] } },
{ "type": "Feature", "properties": { "OBJECTID": 158, "CVEGEO": "110010272003A800", "CVE_ENT": "11", "CVE_MUN": "001", "CVE_LOC": "0272", "CVE_AGEB": "003A", "NOMGEO_1": "Rancho Seco de Orozco (Rancho Seco de Cortez)" }, "geometry": { "type": "Point", "coordinates": [ -101.583177499999977, 20.461317222000048 ] } },
{ "type": "Feature", "properties": { "OBJECTID": 159, "CVEGEO": "1100102740078800", "CVE_ENT": "11", "CVE_MUN": "001", "CVE_LOC": "0274", "CVE_AGEB": "0078", "NOMGEO_1": "El Zorrillo" }, "geometry": { "type": "Point", "coordinates": [ -101.383415, 20.493028889000072 ] } },
{ "type": "Feature", "properties": { "OBJECTID": 160, "CVEGEO": "1100102750010800", "CVE_ENT": "11", "CVE_MUN": "001", "CVE_LOC": "0275", "CVE_AGEB": "0010", "NOMGEO_1": "Ejido de Tlanalapa (Colonia de la Esperanza)" }, "geometry": { "type": "Point", "coordinates": [ -101.558127777999971, 20.662351111000078 ] } },
{ "type": "Feature", "properties": { "OBJECTID": 161, "CVEGEO": "1100102760010800", "CVE_ENT": "11", "CVE_MUN": "001", "CVE_LOC": "0276", "CVE_AGEB": "0010", "NOMGEO_1": "San Cayetano" }, "geometry": { "type": "Point", "coordinates": [ -101.62425194399998, 20.707374166000022 ] } },
{ "type": "Feature", "properties": { "OBJECTID": 162, "CVEGEO": "1100102770025800", "CVE_ENT": "11", "CVE_MUN": "001", "CVE_LOC": "0277", "CVE_AGEB": "0025", "NOMGEO_1": "Cerrito de Horta (Cerrito de Jesis)" }, "geometry": { "type": "Point", "coordinates": [ -101.519310277999978, 20.616092778000052 ] } },
{ "type": "Feature", "properties": { "OBJECTID": 163, "CVEGEO": "1100102780025800", "CVE_ENT": "11", "CVE_MUN": "001", "CVE_LOC": "0278", "CVE_AGEB": "0025", "NOMGEO_1": "Providencia" }, "geometry": { "type": "Point", "coordinates": [ -101.525006388999941, 20.562561945000027 ] } },
{ "type": "Feature", "properties": { "OBJECTID": 164, "CVEGEO": "1100102790078800", "CVE_ENT": "11", "CVE_MUN": "001", "CVE_LOC": "0279", "CVE_AGEB": "0078", "NOMGEO_1": "Rosas Blancas" }, "geometry": { "type": "Point", "coordinates": [ -101.434076666999943, 20.495827222000059 ] } },
{ "type": "Feature", "properties": { "OBJECTID": 165, "CVEGEO": "110010280003A800", "CVE_ENT": "11", "CVE_MUN": "001", "CVE_LOC": "0280", "CVE_AGEB": "003A", "NOMGEO_1": "San Francisco Tierras Blancas" }, "geometry": { "type": "Point", "coordinates": [ -101.528888888999973, 20.547222222000073 ] } },
{ "type": "Feature", "properties": { "OBJECTID": 166, "CVEGEO": "1100103740078800", "CVE_ENT": "11", "CVE_MUN": "001", "CVE_LOC": "0374", "CVE_AGEB": "0078", "NOMGEO_1": "El Nido" }, "geometry": { "type": "Point", "coordinates": [ -101.401014166999971, 20.503084167000054 ] } },
{ "type": "Feature", "properties": { "OBJECTID": 167, "CVEGEO": "110010281003A800", "CVE_ENT": "11", "CVE_MUN": "001", "CVE_LOC": "0281", "CVE_AGEB": "003A", "NOMGEO_1": "San Jose de Martinez" }, "geometry": { "type": "Point", "coordinates": [ -101.526591667, 20.543246389000046 ] } },
{ "type": "Feature", "properties": { "OBJECTID": 168, "CVEGEO": "1100102820078800", "CVE_ENT": "11", "CVE_MUN": "001", "CVE_LOC": "0282", "CVE_AGEB": "0078", "NOMGEO_1": "San Juan de Dios" }, "geometry": { "type": "Point", "coordinates": [ -101.404499166999983, 20.479608056000075 ] } },
{ "type": "Feature", "properties": { "OBJECTID": 169, "CVEGEO": "110010283003A800", "CVE_ENT": "11", "CVE_MUN": "001", "CVE_LOC": "0283", "CVE_AGEB": "003A", "NOMGEO_1": "Villa de Guadalupe [Granja Porcicola]" }, "geometry": { "type": "Point", "coordinates": [ -101.55661833299996, 20.453695278000055 ] } },
{ "type": "Feature", "properties": { "OBJECTID": 170, "CVEGEO": "1100102840082800", "CVE_ENT": "11", "CVE_MUN": "001", "CVE_LOC": "0284", "CVE_AGEB": "0082", "NOMGEO_1": "Rancho Nuevo de Santa Lucia" }, "geometry": { "type": "Point", "coordinates": [ -101.592190832999961, 20.374719722000066 ] } },
{ "type": "Feature", "properties": { "OBJECTID": 171, "CVEGEO": "110010285003A800", "CVE_ENT": "11", "CVE_MUN": "001", "CVE_LOC": "0285", "CVE_AGEB": "003A", "NOMGEO_1": "Rancho Alegre" }, "geometry": { "type": "Point", "coordinates": [ -101.574861110999962, 20.518505556000036 ] } },
{ "type": "Feature", "properties": { "OBJECTID": 172, "CVEGEO": "110010286003A800", "CVE_ENT": "11", "CVE_MUN": "001", "CVE_LOC": "0286", "CVE_AGEB": "003A", "NOMGEO_1": "Laredo" }, "geometry": { "type": "Point", "coordinates": [ -101.577745555999968, 20.51139 ] } },
{ "type": "Feature", "properties": { "OBJECTID": 173, "CVEGEO": "110010287003A800", "CVE_ENT": "11", "CVE_MUN": "001", "CVE_LOC": "0287", "CVE_AGEB": "003A", "NOMGEO_1": "La Purisima" }, "geometry": { "type": "Point", "coordinates": [ -101.594850832999953, 20.472625555000036 ] } },
{ "type": "Feature", "properties": { "OBJECTID": 174, "CVEGEO": "110010288003A800", "CVE_ENT": "11", "CVE_MUN": "001", "CVE_LOC": "0288", "CVE_AGEB": "003A", "NOMGEO_1": "El Tepocate" }, "geometry": { "type": "Point", "coordinates": [ -101.596908332999988, 20.456091111000035 ] } },
{ "type": "Feature", "properties": { "OBJECTID": 175, "CVEGEO": "110010289003A800", "CVE_ENT": "11", "CVE_MUN": "001", "CVE_LOC": "0289", "CVE_AGEB": "003A", "NOMGEO_1": "Paso de Canoa (Chocandiro)" }, "geometry": { "type": "Point", "coordinates": [ -101.599795, 20.493115556000078 ] } },
{ "type": "Feature", "properties": { "OBJECTID": 176, "CVEGEO": "110010291003A800", "CVE_ENT": "11", "CVE_MUN": "001", "CVE_LOC": "0291", "CVE_AGEB": "003A", "NOMGEO_1": "San Jose de Pintores (La Loma)" }, "geometry": { "type": "Point", "coordinates": [ -101.579888610999944, 20.471532222000064 ] } },
{ "type": "Feature", "properties": { "OBJECTID": 177, "CVEGEO": "110010292003A800", "CVE_ENT": "11", "CVE_MUN": "001", "CVE_LOC": "0292", "CVE_AGEB": "003A", "NOMGEO_1": "San Antonio" }, "geometry": { "type": "Point", "coordinates": [ -101.603707777999944, 20.456094722000046 ] } },
{ "type": "Feature", "properties": { "OBJECTID": 178, "CVEGEO": "110010294003A800", "CVE_ENT": "11", "CVE_MUN": "001", "CVE_LOC": "0294", "CVE_AGEB": "003A", "NOMGEO_1": "Granja del Socorro" }, "geometry": { "type": "Point", "coordinates": [ -101.601223888999982, 20.470892222000032 ] } },
{ "type": "Feature", "properties": { "OBJECTID": 179, "CVEGEO": "110010296003A800", "CVE_ENT": "11", "CVE_MUN": "001", "CVE_LOC": "0296", "CVE_AGEB": "003A", "NOMGEO_1": "San Felipe" }, "geometry": { "type": "Point", "coordinates": [ -101.571386943999983, 20.523749167000062 ] } },
{ "type": "Feature", "properties": { "OBJECTID": 180, "CVEGEO": "1100102980044800", "CVE_ENT": "11", "CVE_MUN": "001", "CVE_LOC": "0298", "CVE_AGEB": "0044", "NOMGEO_1": "El Alamo" }, "geometry": { "type": "Point", "coordinates": [ -101.5275, 20.478333334000069 ] } },
{ "type": "Feature", "properties": { "OBJECTID": 181, "CVEGEO": "1100102990044800", "CVE_ENT": "11", "CVE_MUN": "001", "CVE_LOC": "0299", "CVE_AGEB": "0044", "NOMGEO_1": "Alvaro Constantini Specia" }, "geometry": { "type": "Point", "coordinates": [ -101.485245555999938, 20.499001944000042 ] } },
{ "type": "Feature", "properties": { "OBJECTID": 182, "CVEGEO": "1100103000044800", "CVE_ENT": "11", "CVE_MUN": "001", "CVE_LOC": "0300", "CVE_AGEB": "0044", "NOMGEO_1": "Granja de Mario Alberto Perez" }, "geometry": { "type": "Point", "coordinates": [ -101.527758888999983, 20.473318889000041 ] } },
{ "type": "Feature", "properties": { "OBJECTID": 183, "CVEGEO": "1100103020044800", "CVE_ENT": "11", "CVE_MUN": "001", "CVE_LOC": "0302", "CVE_AGEB": "0044", "NOMGEO_1": "Granja la Esperanza" }, "geometry": { "type": "Point", "coordinates": [ -101.486106943999971, 20.495661111000061 ] } },
{ "type": "Feature", "properties": { "OBJECTID": 184, "CVEGEO": "1100103430044800", "CVE_ENT": "11", "CVE_MUN": "001", "CVE_LOC": "0343", "CVE_AGEB": "0044", "NOMGEO_1": "Jacarandas" }, "geometry": { "type": "Point", "coordinates": [ -101.493085, 20.508056666000073 ] } },
{ "type": "Feature", "properties": { "OBJECTID": 185, "CVEGEO": "1100103440044800", "CVE_ENT": "11", "CVE_MUN": "001", "CVE_LOC": "0344", "CVE_AGEB": "0044", "NOMGEO_1": "La Magnolia" }, "geometry": { "type": "Point", "coordinates": [ -101.502727221999976, 20.520428611000057 ] } },
{ "type": "Feature", "properties": { "OBJECTID": 186, "CVEGEO": "1100103450044800", "CVE_ENT": "11", "CVE_MUN": "001", "CVE_LOC": "0345", "CVE_AGEB": "0044", "NOMGEO_1": "Colonia los Hornos" }, "geometry": { "type": "Point", "coordinates": [ -101.544328888999985, 20.433980556000051 ] } },
{ "type": "Feature", "properties": { "OBJECTID": 187, "CVEGEO": "1100103490044800", "CVE_ENT": "11", "CVE_MUN": "001", "CVE_LOC": "0349", "CVE_AGEB": "0044", "NOMGEO_1": "Purisima de Castillejo" }, "geometry": { "type": "Point", "coordinates": [ -101.480714166999974, 20.501102500000059 ] } },
{ "type": "Feature", "properties": { "OBJECTID": 188, "CVEGEO": "1100103500044800", "CVE_ENT": "11", "CVE_MUN": "001", "CVE_LOC": "0350", "CVE_AGEB": "0044", "NOMGEO_1": "Ejido San Telmo (Los Perez)" }, "geometry": { "type": "Point", "coordinates": [ -101.486618332999967, 20.48411027800006 ] } },
{ "type": "Feature", "properties": { "OBJECTID": 189, "CVEGEO": "110010351003A800", "CVE_ENT": "11", "CVE_MUN": "001", "CVE_LOC": "0351", "CVE_AGEB": "003A", "NOMGEO_1": "El Pedregal (El Pedregal de Guerrero)" }, "geometry": { "type": "Point", "coordinates": [ -101.547086110999942, 20.476041111000029 ] } },
{ "type": "Feature", "properties": { "OBJECTID": 190, "CVEGEO": "1100103520044800", "CVE_ENT": "11", "CVE_MUN": "001", "CVE_LOC": "0352", "CVE_AGEB": "0044", "NOMGEO_1": "San Cayetano" }, "geometry": { "type": "Point", "coordinates": [ -101.515637499999968, 20.482982778000064 ] } },
{ "type": "Feature", "properties": { "OBJECTID": 191, "CVEGEO": "1100103530044800", "CVE_ENT": "11", "CVE_MUN": "001", "CVE_LOC": "0353", "CVE_AGEB": "0044", "NOMGEO_1": "San Isidro" }, "geometry": { "type": "Point", "coordinates": [ -101.488542499999937, 20.490525278000064 ] } },
{ "type": "Feature", "properties": { "OBJECTID": 192, "CVEGEO": "1100103540044800", "CVE_ENT": "11", "CVE_MUN": "001", "CVE_LOC": "0354", "CVE_AGEB": "0044", "NOMGEO_1": "Gerardo Acosta" }, "geometry": { "type": "Point", "coordinates": [ -101.488117221999971, 20.496622500000058 ] } },
{ "type": "Feature", "properties": { "OBJECTID": 193, "CVEGEO": "1100103550044800", "CVE_ENT": "11", "CVE_MUN": "001", "CVE_LOC": "0355", "CVE_AGEB": "0044", "NOMGEO_1": "San Antonio de Gomez" }, "geometry": { "type": "Point", "coordinates": [ -101.503518055999962, 20.518135833000031 ] } },
{ "type": "Feature", "properties": { "OBJECTID": 194, "CVEGEO": "1100103570044800", "CVE_ENT": "11", "CVE_MUN": "001", "CVE_LOC": "0357", "CVE_AGEB": "0044", "NOMGEO_1": "Santa Elena de Mogotes" }, "geometry": { "type": "Point", "coordinates": [ -101.483741110999972, 20.494571111000027 ] } },
{ "type": "Feature", "properties": { "OBJECTID": 195, "CVEGEO": "1100103610082800", "CVE_ENT": "11", "CVE_MUN": "001", "CVE_LOC": "0361", "CVE_AGEB": "0082", "NOMGEO_1": "San Miguelito (San Miguel Colonia el Salitre)" }, "geometry": { "type": "Point", "coordinates": [ -101.628484721999939, 20.367775278000067 ] } },
{ "type": "Feature", "properties": { "OBJECTID": 196, "CVEGEO": "1100103620082800", "CVE_ENT": "11", "CVE_MUN": "001", "CVE_LOC": "0362", "CVE_AGEB": "0082", "NOMGEO_1": "Las Liebres" }, "geometry": { "type": "Point", "coordinates": [ -101.605888055999969, 20.345277778000025 ] } },
{ "type": "Feature", "properties": { "OBJECTID": 197, "CVEGEO": "1100103630010800", "CVE_ENT": "11", "CVE_MUN": "001", "CVE_LOC": "0363", "CVE_AGEB": "0010", "NOMGEO_1": "Rancho Campo Real" }, "geometry": { "type": "Point", "coordinates": [ -101.564802777999944, 20.604968333000045 ] } },
{ "type": "Feature", "properties": { "OBJECTID": 198, "CVEGEO": "110010364003A800", "CVE_ENT": "11", "CVE_MUN": "001", "CVE_LOC": "0364", "CVE_AGEB": "003A", "NOMGEO_1": "Huitzizilin (Predio de Huitzatarito)" }, "geometry": { "type": "Point", "coordinates": [ -101.56200333299995, 20.479311389000031 ] } },
{ "type": "Feature", "properties": { "OBJECTID": 199, "CVEGEO": "1100103650010800", "CVE_ENT": "11", "CVE_MUN": "001", "CVE_LOC": "0365", "CVE_AGEB": "0010", "NOMGEO_1": "El Progreso" }, "geometry": { "type": "Point", "coordinates": [ -101.556638610999983, 20.626413889000048 ] } },
{ "type": "Feature", "properties": { "OBJECTID": 200, "CVEGEO": "110010366003A800", "CVE_ENT": "11", "CVE_MUN": "001", "CVE_LOC": "0366", "CVE_AGEB": "003A", "NOMGEO_1": "Soledad de Ayala" }, "geometry": { "type": "Point", "coordinates": [ -101.607404721999956, 20.464321111000061 ] } },
{ "type": "Feature", "properties": { "OBJECTID": 201, "CVEGEO": "1100103670010800", "CVE_ENT": "11", "CVE_MUN": "001", "CVE_LOC": "0367", "CVE_AGEB": "0010", "NOMGEO_1": "San Vicente de Aguirre" }, "geometry": { "type": "Point", "coordinates": [ -101.545673610999984, 20.61586333300005 ] } },
{ "type": "Feature", "properties": { "OBJECTID": 202, "CVEGEO": "1100103690010800", "CVE_ENT": "11", "CVE_MUN": "001", "CVE_LOC": "0369", "CVE_AGEB": "0010", "NOMGEO_1": "La Escondida" }, "geometry": { "type": "Point", "coordinates": [ -101.569904722, 20.606322777000059 ] } },
{ "type": "Feature", "properties": { "OBJECTID": 203, "CVEGEO": "1100103700025800", "CVE_ENT": "11", "CVE_MUN": "001", "CVE_LOC": "0370", "CVE_AGEB": "0025", "NOMGEO_1": "Granja Fatima" }, "geometry": { "type": "Point", "coordinates": [ -101.55105333299997, 20.606543611000063 ] } },
{ "type": "Feature", "properties": { "OBJECTID": 204, "CVEGEO": "1100103720010800", "CVE_ENT": "11", "CVE_MUN": "001", "CVE_LOC": "0372", "CVE_AGEB": "0010", "NOMGEO_1": "Colonia los Angeles" }, "geometry": { "type": "Point", "coordinates": [ -101.574014721999959, 20.604735556000037 ] } },
{ "type": "Feature", "properties": { "OBJECTID": 205, "CVEGEO": "1100103730078800", "CVE_ENT": "11", "CVE_MUN": "001", "CVE_LOC": "0373", "CVE_AGEB": "0078", "NOMGEO_1": "Concepcion de Cruces" }, "geometry": { "type": "Point", "coordinates": [ -101.40334, 20.514216944000054 ] } },
{ "type": "Feature", "properties": { "OBJECTID": 206, "CVEGEO": "1100103760044800", "CVE_ENT": "11", "CVE_MUN": "001", "CVE_LOC": "0376", "CVE_AGEB": "0044", "NOMGEO_1": "El Milagro" }, "geometry": { "type": "Point", "coordinates": [ -101.519866943999943, 20.524824167000077 ] } },
{ "type": "Feature", "properties": { "OBJECTID": 207, "CVEGEO": "1100103790010800", "CVE_ENT": "11", "CVE_MUN": "001", "CVE_LOC": "0379", "CVE_AGEB": "0010", "NOMGEO_1": "Cerratos" }, "geometry": { "type": "Point", "coordinates": [ -101.575609166999982, 20.647044722000032 ] } },
{ "type": "Feature", "properties": { "OBJECTID": 208, "CVEGEO": "1100103800010800", "CVE_ENT": "11", "CVE_MUN": "001", "CVE_LOC": "0380", "CVE_AGEB": "0010", "NOMGEO_1": "La Penuela" }, "geometry": { "type": "Point", "coordinates": [ -101.547293055999944, 20.639916389000064 ] } },
{ "type": "Feature", "properties": { "OBJECTID": 209, "CVEGEO": "1100103810010800", "CVE_ENT": "11", "CVE_MUN": "001", "CVE_LOC": "0381", "CVE_AGEB": "0010", "NOMGEO_1": "Refugio de Rios" }, "geometry": { "type": "Point", "coordinates": [ -101.573687222, 20.636249167000074 ] } },
{ "type": "Feature", "properties": { "OBJECTID": 210, "CVEGEO": "1100103920025800", "CVE_ENT": "11", "CVE_MUN": "001", "CVE_LOC": "0392", "CVE_AGEB": "0025", "NOMGEO_1": "El Bajo" }, "geometry": { "type": "Point", "coordinates": [ -101.570400832999951, 20.560234444000059 ] } },
{ "type": "Feature", "properties": { "OBJECTID": 211, "CVEGEO": "1100103960044800", "CVE_ENT": "11", "CVE_MUN": "001", "CVE_LOC": "0396", "CVE_AGEB": "0044", "NOMGEO_1": "Ubaldo Leon (Santa Rosa)" }, "geometry": { "type": "Point", "coordinates": [ -101.517735832999961, 20.496441667000056 ] } },
{ "type": "Feature", "properties": { "OBJECTID": 212, "CVEGEO": "1100103970044800", "CVE_ENT": "11", "CVE_MUN": "001", "CVE_LOC": "0397", "CVE_AGEB": "0044", "NOMGEO_1": "Santa Martha" }, "geometry": { "type": "Point", "coordinates": [ -101.537950832999968, 20.476268889000039 ] } },
{ "type": "Feature", "properties": { "OBJECTID": 213, "CVEGEO": "1100104000044800", "CVE_ENT": "11", "CVE_MUN": "001", "CVE_LOC": "0400", "CVE_AGEB": "0044", "NOMGEO_1": "La Luz [Parador]" }, "geometry": { "type": "Point", "coordinates": [ -101.486396666999951, 20.492613333000065 ] } },
{ "type": "Feature", "properties": { "OBJECTID": 214, "CVEGEO": "1100104020044800", "CVE_ENT": "11", "CVE_MUN": "001", "CVE_LOC": "0402", "CVE_AGEB": "0044", "NOMGEO_1": "Los Laureles" }, "geometry": { "type": "Point", "coordinates": [ -101.512878332999946, 20.527213611000036 ] } },
{ "type": "Feature", "properties": { "OBJECTID": 215, "CVEGEO": "110010404003A800", "CVE_ENT": "11", "CVE_MUN": "001", "CVE_LOC": "0404", "CVE_AGEB": "003A", "NOMGEO_1": "El Potrerillo" }, "geometry": { "type": "Point", "coordinates": [ -101.547851388999959, 20.4791 ] } },
{ "type": "Feature", "properties": { "OBJECTID": 216, "CVEGEO": "1100104050010800", "CVE_ENT": "11", "CVE_MUN": "001", "CVE_LOC": "0405", "CVE_AGEB": "0010", "NOMGEO_1": "San Jose de Rios" }, "geometry": { "type": "Point", "coordinates": [ -101.579375832999972, 20.634124722000024 ] } },
{ "type": "Feature", "properties": { "OBJECTID": 217, "CVEGEO": "1100104090044800", "CVE_ENT": "11", "CVE_MUN": "001", "CVE_LOC": "0409", "CVE_AGEB": "0044", "NOMGEO_1": "Cerrito de Gomez (La Montanita)" }, "geometry": { "type": "Point", "coordinates": [ -101.519998055999963, 20.512398055000062 ] } },
{ "type": "Feature", "properties": { "OBJECTID": 218, "CVEGEO": "1100104110078800", "CVE_ENT": "11", "CVE_MUN": "001", "CVE_LOC": "0411", "CVE_AGEB": "0078", "NOMGEO_1": "El Quinto" }, "geometry": { "type": "Point", "coordinates": [ -101.410166388999983, 20.417032500000062 ] } },
{ "type": "Feature", "properties": { "OBJECTID": 219, "CVEGEO": "1100104160078800", "CVE_ENT": "11", "CVE_MUN": "001", "CVE_LOC": "0416", "CVE_AGEB": "0078", "NOMGEO_1": "La Casita" }, "geometry": { "type": "Point", "coordinates": [ -101.411918889, 20.411812500000053 ] } },
{ "type": "Feature", "properties": { "OBJECTID": 220, "CVEGEO": "1100104190044800", "CVE_ENT": "11", "CVE_MUN": "001", "CVE_LOC": "0419", "CVE_AGEB": "0044", "NOMGEO_1": "San Vicente de Ceballos" }, "geometry": { "type": "Point", "coordinates": [ -101.535192777999953, 20.474735278000026 ] } },
{ "type": "Feature", "properties": { "OBJECTID": 221, "CVEGEO": "1100104200078800", "CVE_ENT": "11", "CVE_MUN": "001", "CVE_LOC": "0420", "CVE_AGEB": "0078", "NOMGEO_1": "Montecillo" }, "geometry": { "type": "Point", "coordinates": [ -101.407202499999983, 20.39745083300005 ] } },
{ "type": "Feature", "properties": { "OBJECTID": 222, "CVEGEO": "1100104210010800", "CVE_ENT": "11", "CVE_MUN": "001", "CVE_LOC": "0421", "CVE_AGEB": "0010", "NOMGEO_1": "La Muralla" }, "geometry": { "type": "Point", "coordinates": [ -101.583338888999947, 20.629462778000061 ] } },
{ "type": "Feature", "properties": { "OBJECTID": 223, "CVEGEO": "110010426003A800", "CVE_ENT": "11", "CVE_MUN": "001", "CVE_LOC": "0426", "CVE_AGEB": "003A", "NOMGEO_1": "Campo Real" }, "geometry": { "type": "Point", "coordinates": [ -101.521199166999963, 20.542031389000044 ] } },
{ "type": "Feature", "properties": { "OBJECTID": 224, "CVEGEO": "1100104360025800", "CVE_ENT": "11", "CVE_MUN": "001", "CVE_LOC": "0436", "CVE_AGEB": "0025", "NOMGEO_1": "Mexiquito" }, "geometry": { "type": "Point", "coordinates": [ -101.566533610999954, 20.581014167000035 ] } },
{ "type": "Feature", "properties": { "OBJECTID": 225, "CVEGEO": "1100104380025800", "CVE_ENT": "11", "CVE_MUN": "001", "CVE_LOC": "0438", "CVE_AGEB": "0025", "NOMGEO_1": "La Candelaria (Cristo Rey)" }, "geometry": { "type": "Point", "coordinates": [ -101.536711110999988, 20.598227778000023 ] } },
{ "type": "Feature", "properties": { "OBJECTID": 226, "CVEGEO": "1100104390025800", "CVE_ENT": "11", "CVE_MUN": "001", "CVE_LOC": "0439", "CVE_AGEB": "0025", "NOMGEO_1": "Ahualulco" }, "geometry": { "type": "Point", "coordinates": [ -101.50728388899995, 20.573738334000041 ] } },
{ "type": "Feature", "properties": { "OBJECTID": 227, "CVEGEO": "1100104420025800", "CVE_ENT": "11", "CVE_MUN": "001", "CVE_LOC": "0442", "CVE_AGEB": "0025", "NOMGEO_1": "Los Sauces" }, "geometry": { "type": "Point", "coordinates": [ -101.573555832999944, 20.590706111000031 ] } },
{ "type": "Feature", "properties": { "OBJECTID": 228, "CVEGEO": "1100104560078800", "CVE_ENT": "11", "CVE_MUN": "001", "CVE_LOC": "0456", "CVE_AGEB": "0078", "NOMGEO_1": "Granja Gonzalez" }, "geometry": { "type": "Point", "coordinates": [ -101.431301666999957, 20.407399445000067 ] } },
{ "type": "Feature", "properties": { "OBJECTID": 229, "CVEGEO": "1100104570082800", "CVE_ENT": "11", "CVE_MUN": "001", "CVE_LOC": "0457", "CVE_AGEB": "0082", "NOMGEO_1": "El Pitahayo" }, "geometry": { "type": "Point", "coordinates": [ -101.590477499999963, 20.419297500000027 ] } },
{ "type": "Feature", "properties": { "OBJECTID": 230, "CVEGEO": "1100104580082800", "CVE_ENT": "11", "CVE_MUN": "001", "CVE_LOC": "0458", "CVE_AGEB": "0082", "NOMGEO_1": "Mireles" }, "geometry": { "type": "Point", "coordinates": [ -101.586875832999965, 20.416333611000027 ] } },
{ "type": "Feature", "properties": { "OBJECTID": 231, "CVEGEO": "1100104590082800", "CVE_ENT": "11", "CVE_MUN": "001", "CVE_LOC": "0459", "CVE_AGEB": "0082", "NOMGEO_1": "Lomeli" }, "geometry": { "type": "Point", "coordinates": [ -101.57761, 20.420999167000048 ] } },
{ "type": "Feature", "properties": { "OBJECTID": 232, "CVEGEO": "1100104600082800", "CVE_ENT": "11", "CVE_MUN": "001", "CVE_LOC": "0460", "CVE_AGEB": "0082", "NOMGEO_1": "Martinez" }, "geometry": { "type": "Point", "coordinates": [ -101.572768332999942, 20.421261944000037 ] } },
{ "type": "Feature", "properties": { "OBJECTID": 233, "CVEGEO": "110010461003A800", "CVE_ENT": "11", "CVE_MUN": "001", "CVE_LOC": "0461", "CVE_AGEB": "003A", "NOMGEO_1": "La Galerita (Emilio Vargas)" }, "geometry": { "type": "Point", "coordinates": [ -101.571267778, 20.434558889000073 ] } },
{ "type": "Feature", "properties": { "OBJECTID": 234, "CVEGEO": "1100104620082800", "CVE_ENT": "11", "CVE_MUN": "001", "CVE_LOC": "0462", "CVE_AGEB": "0082", "NOMGEO_1": "La Cabana" }, "geometry": { "type": "Point", "coordinates": [ -101.573761388999969, 20.412762778000058 ] } },
{ "type": "Feature", "properties": { "OBJECTID": 235, "CVEGEO": "1100104630082800", "CVE_ENT": "11", "CVE_MUN": "001", "CVE_LOC": "0463", "CVE_AGEB": "0082", "NOMGEO_1": "Santa Elena de Acosta" }, "geometry": { "type": "Point", "coordinates": [ -101.599523610999938, 20.401918056000056 ] } },
{ "type": "Feature", "properties": { "OBJECTID": 236, "CVEGEO": "1100104640082800", "CVE_ENT": "11", "CVE_MUN": "001", "CVE_LOC": "0464", "CVE_AGEB": "0082", "NOMGEO_1": "Coyoacan de Vargas" }, "geometry": { "type": "Point", "coordinates": [ -101.590419721999979, 20.391523333000066 ] } },
{ "type": "Feature", "properties": { "OBJECTID": 237, "CVEGEO": "1100104650082800", "CVE_ENT": "11", "CVE_MUN": "001", "CVE_LOC": "0465", "CVE_AGEB": "0082", "NOMGEO_1": "Coyoacan de Vargas (Faustino Vargas)" }, "geometry": { "type": "Point", "coordinates": [ -101.579285832999972, 20.392815555000027 ] } },
{ "type": "Feature", "properties": { "OBJECTID": 238, "CVEGEO": "1100104660082800", "CVE_ENT": "11", "CVE_MUN": "001", "CVE_LOC": "0466", "CVE_AGEB": "0082", "NOMGEO_1": "Benito Canales" }, "geometry": { "type": "Point", "coordinates": [ -101.567302777999942, 20.425144444000068 ] } },
{ "type": "Feature", "properties": { "OBJECTID": 239, "CVEGEO": "1100104670025800", "CVE_ENT": "11", "CVE_MUN": "001", "CVE_LOC": "0467", "CVE_AGEB": "0025", "NOMGEO_1": "Alto de Medina (San Jeronimo de Medina)" }, "geometry": { "type": "Point", "coordinates": [ -101.545690277999938, 20.575685 ] } },
{ "type": "Feature", "properties": { "OBJECTID": 240, "CVEGEO": "1100104680025800", "CVE_ENT": "11", "CVE_MUN": "001", "CVE_LOC": "0468", "CVE_AGEB": "0025", "NOMGEO_1": "El Carmen" }, "geometry": { "type": "Point", "coordinates": [ -101.568816388999949, 20.585026666000033 ] } },
{ "type": "Feature", "properties": { "OBJECTID": 241, "CVEGEO": "1100104700025800", "CVE_ENT": "11", "CVE_MUN": "001", "CVE_LOC": "0470", "CVE_AGEB": "0025", "NOMGEO_1": "La Colonia" }, "geometry": { "type": "Point", "coordinates": [ -101.580852221999976, 20.566162223000049 ] } },
{ "type": "Feature", "properties": { "OBJECTID": 242, "CVEGEO": "1100104810025800", "CVE_ENT": "11", "CVE_MUN": "001", "CVE_LOC": "0481", "CVE_AGEB": "0025", "NOMGEO_1": "Loma de Lastiri" }, "geometry": { "type": "Point", "coordinates": [ -101.51653749999997, 20.58375916600005 ] } },
{ "type": "Feature", "properties": { "OBJECTID": 243, "CVEGEO": "1100104920025800", "CVE_ENT": "11", "CVE_MUN": "001", "CVE_LOC": "0492", "CVE_AGEB": "0025", "NOMGEO_1": "Abel Delgado (La Lobera)" }, "geometry": { "type": "Point", "coordinates": [ -101.577357777999964, 20.558266389000039 ] } },
{ "type": "Feature", "properties": { "OBJECTID": 244, "CVEGEO": "1100104930025800", "CVE_ENT": "11", "CVE_MUN": "001", "CVE_LOC": "0493", "CVE_AGEB": "0025", "NOMGEO_1": "Alto de Alcocer" }, "geometry": { "type": "Point", "coordinates": [ -101.539292777999947, 20.56097 ] } },
{ "type": "Feature", "properties": { "OBJECTID": 245, "CVEGEO": "1100104940025800", "CVE_ENT": "11", "CVE_MUN": "001", "CVE_LOC": "0494", "CVE_AGEB": "0025", "NOMGEO_1": "Antonio Delgado" }, "geometry": { "type": "Point", "coordinates": [ -101.50219, 20.594149166000022 ] } },
{ "type": "Feature", "properties": { "OBJECTID": 246, "CVEGEO": "110010495003A800", "CVE_ENT": "11", "CVE_MUN": "001", "CVE_LOC": "0495", "CVE_AGEB": "003A", "NOMGEO_1": "Barrio Nuevo de Santa Barbara" }, "geometry": { "type": "Point", "coordinates": [ -101.596425, 20.516023055000062 ] } },
{ "type": "Feature", "properties": { "OBJECTID": 247, "CVEGEO": "1100104960078800", "CVE_ENT": "11", "CVE_MUN": "001", "CVE_LOC": "0496", "CVE_AGEB": "0078", "NOMGEO_1": "El Pedregal" }, "geometry": { "type": "Point", "coordinates": [ -101.443498888999954, 20.475017222000076 ] } },
{ "type": "Feature", "properties": { "OBJECTID": 248, "CVEGEO": "110010497003A800", "CVE_ENT": "11", "CVE_MUN": "001", "CVE_LOC": "0497", "CVE_AGEB": "003A", "NOMGEO_1": "Buenavista de Vega" }, "geometry": { "type": "Point", "coordinates": [ -101.533246943999984, 20.532860278000044 ] } },
{ "type": "Feature", "properties": { "OBJECTID": 249, "CVEGEO": "110010498003A800", "CVE_ENT": "11", "CVE_MUN": "001", "CVE_LOC": "0498", "CVE_AGEB": "003A", "NOMGEO_1": "Canoa (Juan Angel Martinez)" }, "geometry": { "type": "Point", "coordinates": [ -101.592846110999972, 20.488648889000046 ] } },
{ "type": "Feature", "properties": { "OBJECTID": 250, "CVEGEO": "110010499003A800", "CVE_ENT": "11", "CVE_MUN": "001", "CVE_LOC": "0499", "CVE_AGEB": "003A", "NOMGEO_1": "Galera de Huitzataro (Granja de Don Cruz)" }, "geometry": { "type": "Point", "coordinates": [ -101.558370832999969, 20.482898333000037 ] } },
{ "type": "Feature", "properties": { "OBJECTID": 251, "CVEGEO": "110010500003A800", "CVE_ENT": "11", "CVE_MUN": "001", "CVE_LOC": "0500", "CVE_AGEB": "003A", "NOMGEO_1": "Las Canoas (Arroyo Seco)" }, "geometry": { "type": "Point", "coordinates": [ -101.593738888999951, 20.504775277000078 ] } },
{ "type": "Feature", "properties": { "OBJECTID": 252, "CVEGEO": "1100105010025800", "CVE_ENT": "11", "CVE_MUN": "001", "CVE_LOC": "0501", "CVE_AGEB": "0025", "NOMGEO_1": "Carmen Castro" }, "geometry": { "type": "Point", "coordinates": [ -101.48795611099996, 20.570071944000063 ] } },
{ "type": "Feature", "properties": { "OBJECTID": 253, "CVEGEO": "1100105020025800", "CVE_ENT": "11", "CVE_MUN": "001", "CVE_LOC": "0502", "CVE_AGEB": "0025", "NOMGEO_1": "La Casa Blanca (El Alamo)" }, "geometry": { "type": "Point", "coordinates": [ -101.541441110999983, 20.590251111000043 ] } },
{ "type": "Feature", "properties": { "OBJECTID": 254, "CVEGEO": "110010503003A800", "CVE_ENT": "11", "CVE_MUN": "001", "CVE_LOC": "0503", "CVE_AGEB": "003A", "NOMGEO_1": "Santa Amalia" }, "geometry": { "type": "Point", "coordinates": [ -101.550022499999955, 20.486892778000026 ] } },
{ "type": "Feature", "properties": { "OBJECTID": 255, "CVEGEO": "1100105040025800", "CVE_ENT": "11", "CVE_MUN": "001", "CVE_LOC": "0504", "CVE_AGEB": "0025", "NOMGEO_1": "La Cinta" }, "geometry": { "type": "Point", "coordinates": [ -101.560046666999938, 20.555521389000035 ] } },
{ "type": "Feature", "properties": { "OBJECTID": 256, "CVEGEO": "110010505003A800", "CVE_ENT": "11", "CVE_MUN": "001", "CVE_LOC": "0505", "CVE_AGEB": "003A", "NOMGEO_1": "Cortijo Miramar" }, "geometry": { "type": "Point", "coordinates": [ -101.605836110999974, 20.451552222000032 ] } },
{ "type": "Feature", "properties": { "OBJECTID": 257, "CVEGEO": "110010507003A800", "CVE_ENT": "11", "CVE_MUN": "001", "CVE_LOC": "0507", "CVE_AGEB": "003A", "NOMGEO_1": "Don Jesis (Casa de los Arcos)" }, "geometry": { "type": "Point", "coordinates": [ -101.579897221999943, 20.515119445000039 ] } },
{ "type": "Feature", "properties": { "OBJECTID": 258, "CVEGEO": "110010508003A800", "CVE_ENT": "11", "CVE_MUN": "001", "CVE_LOC": "0508", "CVE_AGEB": "003A", "NOMGEO_1": "La Estancia de Orozco (Cuatro Milpas)" }, "geometry": { "type": "Point", "coordinates": [ -101.564675, 20.466419166000037 ] } },
{ "type": "Feature", "properties": { "OBJECTID": 259, "CVEGEO": "1100105090025800", "CVE_ENT": "11", "CVE_MUN": "001", "CVE_LOC": "0509", "CVE_AGEB": "0025", "NOMGEO_1": "La Fortuna" }, "geometry": { "type": "Point", "coordinates": [ -101.585144721999939, 20.579903056000035 ] } },
{ "type": "Feature", "properties": { "OBJECTID": 260, "CVEGEO": "1100105100044800", "CVE_ENT": "11", "CVE_MUN": "001", "CVE_LOC": "0510", "CVE_AGEB": "0044", "NOMGEO_1": "Fraccion la Gloria (Ricardo Cruz Aguilera)" }, "geometry": { "type": "Point", "coordinates": [ -101.50448305599997, 20.446703056000047 ] } },
{ "type": "Feature", "properties": { "OBJECTID": 261, "CVEGEO": "1100105110044800", "CVE_ENT": "11", "CVE_MUN": "001", "CVE_LOC": "0511", "CVE_AGEB": "0044", "NOMGEO_1": "Don Blas (San Jose de Gomez)" }, "geometry": { "type": "Point", "coordinates": [ -101.494456389, 20.498720278000064 ] } },
{ "type": "Feature", "properties": { "OBJECTID": 262, "CVEGEO": "1100105120078800", "CVE_ENT": "11", "CVE_MUN": "001", "CVE_LOC": "0512", "CVE_AGEB": "0078", "NOMGEO_1": "San Aparicio (La Granja del Doctor)" }, "geometry": { "type": "Point", "coordinates": [ -101.426849166999943, 20.476574722000066 ] } },
{ "type": "Feature", "properties": { "OBJECTID": 263, "CVEGEO": "1100105130078800", "CVE_ENT": "11", "CVE_MUN": "001", "CVE_LOC": "0513", "CVE_AGEB": "0078", "NOMGEO_1": "Cuatro Caminos" }, "geometry": { "type": "Point", "coordinates": [ -101.427518332999966, 20.399748611000064 ] } },
{ "type": "Feature", "properties": { "OBJECTID": 264, "CVEGEO": "1100105140044800", "CVE_ENT": "11", "CVE_MUN": "001", "CVE_LOC": "0514", "CVE_AGEB": "0044", "NOMGEO_1": "El Pedregal" }, "geometry": { "type": "Point", "coordinates": [ -101.544510832999947, 20.47068777800007 ] } },
{ "type": "Feature", "properties": { "OBJECTID": 265, "CVEGEO": "1100105150025800", "CVE_ENT": "11", "CVE_MUN": "001", "CVE_LOC": "0515", "CVE_AGEB": "0025", "NOMGEO_1": "Jose Navarro" }, "geometry": { "type": "Point", "coordinates": [ -101.544500832999972, 20.551198056000032 ] } },
{ "type": "Feature", "properties": { "OBJECTID": 266, "CVEGEO": "1100105160025800", "CVE_ENT": "11", "CVE_MUN": "001", "CVE_LOC": "0516", "CVE_AGEB": "0025", "NOMGEO_1": "La Pequena Carroza" }, "geometry": { "type": "Point", "coordinates": [ -101.570062777999965, 20.577217222000058 ] } },
{ "type": "Feature", "properties": { "OBJECTID": 267, "CVEGEO": "1100105180025800", "CVE_ENT": "11", "CVE_MUN": "001", "CVE_LOC": "0518", "CVE_AGEB": "0025", "NOMGEO_1": "Martin Alvarado" }, "geometry": { "type": "Point", "coordinates": [ -101.567998888999966, 20.547963055000025 ] } },
{ "type": "Feature", "properties": { "OBJECTID": 268, "CVEGEO": "110010520003A800", "CVE_ENT": "11", "CVE_MUN": "001", "CVE_LOC": "0520", "CVE_AGEB": "003A", "NOMGEO_1": "San Joaquin" }, "geometry": { "type": "Point", "coordinates": [ -101.546359443999961, 20.546937778000029 ] } },
{ "type": "Feature", "properties": { "OBJECTID": 269, "CVEGEO": "1100105210025800", "CVE_ENT": "11", "CVE_MUN": "001", "CVE_LOC": "0521", "CVE_AGEB": "0025", "NOMGEO_1": "La Herradura" }, "geometry": { "type": "Point", "coordinates": [ -101.505833332999941, 20.60888888900007 ] } },
{ "type": "Feature", "properties": { "OBJECTID": 270, "CVEGEO": "1100105220025800", "CVE_ENT": "11", "CVE_MUN": "001", "CVE_LOC": "0522", "CVE_AGEB": "0025", "NOMGEO_1": "Hursh (El Vergel)" }, "geometry": { "type": "Point", "coordinates": [ -101.551491943999963, 20.549711111000022 ] } },
{ "type": "Feature", "properties": { "OBJECTID": 271, "CVEGEO": "1100105230025800", "CVE_ENT": "11", "CVE_MUN": "001", "CVE_LOC": "0523", "CVE_AGEB": "0025", "NOMGEO_1": "Jose Eduardo Fuerte" }, "geometry": { "type": "Point", "coordinates": [ -101.555593333, 20.593574722000028 ] } },
{ "type": "Feature", "properties": { "OBJECTID": 272, "CVEGEO": "1100105240025800", "CVE_ENT": "11", "CVE_MUN": "001", "CVE_LOC": "0524", "CVE_AGEB": "0025", "NOMGEO_1": "El Pino" }, "geometry": { "type": "Point", "coordinates": [ -101.524349166999968, 20.578991944000052 ] } },
{ "type": "Feature", "properties": { "OBJECTID": 273, "CVEGEO": "1100105250025800", "CVE_ENT": "11", "CVE_MUN": "001", "CVE_LOC": "0525", "CVE_AGEB": "0025", "NOMGEO_1": "El Ladero" }, "geometry": { "type": "Point", "coordinates": [ -101.516488332999984, 20.553246389000037 ] } },
{ "type": "Feature", "properties": { "OBJECTID": 274, "CVEGEO": "1100105270025800", "CVE_ENT": "11", "CVE_MUN": "001", "CVE_LOC": "0527", "CVE_AGEB": "0025", "NOMGEO_1": "El Laurel (Don Arcadio)" }, "geometry": { "type": "Point", "coordinates": [ -101.509108888999947, 20.56733527800003 ] } },
{ "type": "Feature", "properties": { "OBJECTID": 275, "CVEGEO": "1100105280025800", "CVE_ENT": "11", "CVE_MUN": "001", "CVE_LOC": "0528", "CVE_AGEB": "0025", "NOMGEO_1": "Los Ledezma" }, "geometry": { "type": "Point", "coordinates": [ -101.553113332999942, 20.55409944400003 ] } },
{ "type": "Feature", "properties": { "OBJECTID": 276, "CVEGEO": "1100105290025800", "CVE_ENT": "11", "CVE_MUN": "001", "CVE_LOC": "0529", "CVE_AGEB": "0025", "NOMGEO_1": "La Loma" }, "geometry": { "type": "Point", "coordinates": [ -101.494080832999941, 20.566034167000055 ] } },
{ "type": "Feature", "properties": { "OBJECTID": 277, "CVEGEO": "1100105300025800", "CVE_ENT": "11", "CVE_MUN": "001", "CVE_LOC": "0530", "CVE_AGEB": "0025", "NOMGEO_1": "La Loma" }, "geometry": { "type": "Point", "coordinates": [ -101.509046943999977, 20.580344722000063 ] } },
{ "type": "Feature", "properties": { "OBJECTID": 278, "CVEGEO": "1100105310082800", "CVE_ENT": "11", "CVE_MUN": "001", "CVE_LOC": "0531", "CVE_AGEB": "0082", "NOMGEO_1": "La Loma" }, "geometry": { "type": "Point", "coordinates": [ -101.572428332999948, 20.357864445000075 ] } },
{ "type": "Feature", "properties": { "OBJECTID": 279, "CVEGEO": "1100105320025800", "CVE_ENT": "11", "CVE_MUN": "001", "CVE_LOC": "0532", "CVE_AGEB": "0025", "NOMGEO_1": "Luz Negrete" }, "geometry": { "type": "Point", "coordinates": [ -101.558403055999975, 20.593128333000038 ] } },
{ "type": "Feature", "properties": { "OBJECTID": 280, "CVEGEO": "1100105340025800", "CVE_ENT": "11", "CVE_MUN": "001", "CVE_LOC": "0534", "CVE_AGEB": "0025", "NOMGEO_1": "Manuel Valdez" }, "geometry": { "type": "Point", "coordinates": [ -101.480591666999942, 20.587019722000036 ] } },
{ "type": "Feature", "properties": { "OBJECTID": 281, "CVEGEO": "1100105350025800", "CVE_ENT": "11", "CVE_MUN": "001", "CVE_LOC": "0535", "CVE_AGEB": "0025", "NOMGEO_1": "Margarito Velazquez" }, "geometry": { "type": "Point", "coordinates": [ -101.568203055999959, 20.55065361100003 ] } },
{ "type": "Feature", "properties": { "OBJECTID": 282, "CVEGEO": "1100105360025800", "CVE_ENT": "11", "CVE_MUN": "001", "CVE_LOC": "0536", "CVE_AGEB": "0025", "NOMGEO_1": "Maximino Fuerte (La Potosina)" }, "geometry": { "type": "Point", "coordinates": [ -101.551316388999965, 20.593231389000039 ] } },
{ "type": "Feature", "properties": { "OBJECTID": 283, "CVEGEO": "1100105370025800", "CVE_ENT": "11", "CVE_MUN": "001", "CVE_LOC": "0537", "CVE_AGEB": "0025", "NOMGEO_1": "El Monte" }, "geometry": { "type": "Point", "coordinates": [ -101.526579444, 20.630676945000062 ] } },
{ "type": "Feature", "properties": { "OBJECTID": 284, "CVEGEO": "1100105380044800", "CVE_ENT": "11", "CVE_MUN": "001", "CVE_LOC": "0538", "CVE_AGEB": "0044", "NOMGEO_1": "El Motor de San Jacinto" }, "geometry": { "type": "Point", "coordinates": [ -101.524178610999968, 20.535398333000046 ] } },
{ "type": "Feature", "properties": { "OBJECTID": 285, "CVEGEO": "1100105390025800", "CVE_ENT": "11", "CVE_MUN": "001", "CVE_LOC": "0539", "CVE_AGEB": "0025", "NOMGEO_1": "Los Navarro (El Alacran)" }, "geometry": { "type": "Point", "coordinates": [ -101.561944443999948, 20.569166667000047 ] } },
{ "type": "Feature", "properties": { "OBJECTID": 286, "CVEGEO": "110010540003A800", "CVE_ENT": "11", "CVE_MUN": "001", "CVE_LOC": "0540", "CVE_AGEB": "003A", "NOMGEO_1": "La Navidad (El Milagro)" }, "geometry": { "type": "Point", "coordinates": [ -101.580500277999988, 20.522104167000066 ] } },
{ "type": "Feature", "properties": { "OBJECTID": 287, "CVEGEO": "1100105410010800", "CVE_ENT": "11", "CVE_MUN": "001", "CVE_LOC": "0541", "CVE_AGEB": "0010", "NOMGEO_1": "Ojo de Agua del Zapote" }, "geometry": { "type": "Point", "coordinates": [ -101.622741388999941, 20.719865834000075 ] } },
{ "type": "Feature", "properties": { "OBJECTID": 288, "CVEGEO": "110010542003A800", "CVE_ENT": "11", "CVE_MUN": "001", "CVE_LOC": "0542", "CVE_AGEB": "003A", "NOMGEO_1": "La Pequena de las Cruces" }, "geometry": { "type": "Point", "coordinates": [ -101.578691666999987, 20.525716389000024 ] } },
{ "type": "Feature", "properties": { "OBJECTID": 289, "CVEGEO": "1100105430010800", "CVE_ENT": "11", "CVE_MUN": "001", "CVE_LOC": "0543", "CVE_AGEB": "0010", "NOMGEO_1": "La Pequena Estrella (Ramon Fernandez)" }, "geometry": { "type": "Point", "coordinates": [ -101.597329721999984, 20.75067 ] } },
{ "type": "Feature", "properties": { "OBJECTID": 290, "CVEGEO": "1100105440010800", "CVE_ENT": "11", "CVE_MUN": "001", "CVE_LOC": "0544", "CVE_AGEB": "0010", "NOMGEO_1": "La Presa de Uribe" }, "geometry": { "type": "Point", "coordinates": [ -101.576304166999989, 20.61134194400006 ] } },
{ "type": "Feature", "properties": { "OBJECTID": 291, "CVEGEO": "110010545003A800", "CVE_ENT": "11", "CVE_MUN": "001", "CVE_LOC": "0545", "CVE_AGEB": "003A", "NOMGEO_1": "La Providencia (Gustavo Garcia)" }, "geometry": { "type": "Point", "coordinates": [ -101.580326110999977, 20.477556944000071 ] } },
{ "type": "Feature", "properties": { "OBJECTID": 292, "CVEGEO": "1100105460044800", "CVE_ENT": "11", "CVE_MUN": "001", "CVE_LOC": "0546", "CVE_AGEB": "0044", "NOMGEO_1": "Rafael Zaragoza (La Magnolia)" }, "geometry": { "type": "Point", "coordinates": [ -101.508468610999955, 20.524944722000043 ] } },
{ "type": "Feature", "properties": { "OBJECTID": 293, "CVEGEO": "1100105480010800", "CVE_ENT": "11", "CVE_MUN": "001", "CVE_LOC": "0548", "CVE_AGEB": "0010", "NOMGEO_1": "Berrizal" }, "geometry": { "type": "Point", "coordinates": [ -101.585915, 20.687853056000051 ] } },
{ "type": "Feature", "properties": { "OBJECTID": 294, "CVEGEO": "110010549003A800", "CVE_ENT": "11", "CVE_MUN": "001", "CVE_LOC": "0549", "CVE_AGEB": "003A", "NOMGEO_1": "La Flor (Eliseo Martinez)" }, "geometry": { "type": "Point", "coordinates": [ -101.571058610999955, 20.541254722000076 ] } },
{ "type": "Feature", "properties": { "OBJECTID": 295, "CVEGEO": "110010550003A800", "CVE_ENT": "11", "CVE_MUN": "001", "CVE_LOC": "0550", "CVE_AGEB": "003A", "NOMGEO_1": "La Nueva Salud" }, "geometry": { "type": "Point", "coordinates": [ -101.582957499999964, 20.55119250000007 ] } },
{ "type": "Feature", "properties": { "OBJECTID": 296, "CVEGEO": "1100105510010800", "CVE_ENT": "11", "CVE_MUN": "001", "CVE_LOC": "0551", "CVE_AGEB": "0010", "NOMGEO_1": "Rancho los Lara" }, "geometry": { "type": "Point", "coordinates": [ -101.563182777999941, 20.636324444000024 ] } },
{ "type": "Feature", "properties": { "OBJECTID": 297, "CVEGEO": "1100105520082800", "CVE_ENT": "11", "CVE_MUN": "001", "CVE_LOC": "0552", "CVE_AGEB": "0082", "NOMGEO_1": "Los Pinos" }, "geometry": { "type": "Point", "coordinates": [ -101.625555555999938, 20.362511389000076 ] } },
{ "type": "Feature", "properties": { "OBJECTID": 298, "CVEGEO": "1100105530025800", "CVE_ENT": "11", "CVE_MUN": "001", "CVE_LOC": "0553", "CVE_AGEB": "0025", "NOMGEO_1": "San Juan" }, "geometry": { "type": "Point", "coordinates": [ -101.499495277999984, 20.588056388000041 ] } },
{ "type": "Feature", "properties": { "OBJECTID": 299, "CVEGEO": "110010554003A800", "CVE_ENT": "11", "CVE_MUN": "001", "CVE_LOC": "0554", "CVE_AGEB": "003A", "NOMGEO_1": "San Ramon" }, "geometry": { "type": "Point", "coordinates": [ -101.56688, 20.54525527800007 ] } },
{ "type": "Feature", "properties": { "OBJECTID": 300, "CVEGEO": "110010555003A800", "CVE_ENT": "11", "CVE_MUN": "001", "CVE_LOC": "0555", "CVE_AGEB": "003A", "NOMGEO_1": "Rancho Seco de Tiradores" }, "geometry": { "type": "Point", "coordinates": [ -101.569958332999988, 20.464382778000072 ] } },
{ "type": "Feature", "properties": { "OBJECTID": 301, "CVEGEO": "1100105560010800", "CVE_ENT": "11", "CVE_MUN": "001", "CVE_LOC": "0556", "CVE_AGEB": "0010", "NOMGEO_1": "Refugio de Rios (La Piramide)" }, "geometry": { "type": "Point", "coordinates": [ -101.569221388999949, 20.633224722000023 ] } },
{ "type": "Feature", "properties": { "OBJECTID": 302, "CVEGEO": "1100105570025800", "CVE_ENT": "11", "CVE_MUN": "001", "CVE_LOC": "0557", "CVE_AGEB": "0025", "NOMGEO_1": "El Retono" }, "geometry": { "type": "Point", "coordinates": [ -101.51862194399996, 20.574392777000071 ] } },
{ "type": "Feature", "properties": { "OBJECTID": 303, "CVEGEO": "110010558003A800", "CVE_ENT": "11", "CVE_MUN": "001", "CVE_LOC": "0558", "CVE_AGEB": "003A", "NOMGEO_1": "Roberto Orozco Vargas" }, "geometry": { "type": "Point", "coordinates": [ -101.576670555999954, 20.467513611000072 ] } },
{ "type": "Feature", "properties": { "OBJECTID": 304, "CVEGEO": "1100105590025800", "CVE_ENT": "11", "CVE_MUN": "001", "CVE_LOC": "0559", "CVE_AGEB": "0025", "NOMGEO_1": "Rosa Amarilla" }, "geometry": { "type": "Point", "coordinates": [ -101.475355277999938, 20.580605834000039 ] } },
{ "type": "Feature", "properties": { "OBJECTID": 305, "CVEGEO": "1100105600025800", "CVE_ENT": "11", "CVE_MUN": "001", "CVE_LOC": "0560", "CVE_AGEB": "0025", "NOMGEO_1": "La Salud (Angel Martinez)" }, "geometry": { "type": "Point", "coordinates": [ -101.533786943999985, 20.60756611100004 ] } },
{ "type": "Feature", "properties": { "OBJECTID": 306, "CVEGEO": "1100105610025800", "CVE_ENT": "11", "CVE_MUN": "001", "CVE_LOC": "0561", "CVE_AGEB": "0025", "NOMGEO_1": "San Bernardo (La Lobera)" }, "geometry": { "type": "Point", "coordinates": [ -101.566967499999976, 20.555751389000022 ] } },
{ "type": "Feature", "properties": { "OBJECTID": 307, "CVEGEO": "1100105630010800", "CVE_ENT": "11", "CVE_MUN": "001", "CVE_LOC": "0563", "CVE_AGEB": "0010", "NOMGEO_1": "San Isidro de Rios (Don Concepcion)" }, "geometry": { "type": "Point", "coordinates": [ -101.565434443999948, 20.621221666000054 ] } },
{ "type": "Feature", "properties": { "OBJECTID": 308, "CVEGEO": "1100105640025800", "CVE_ENT": "11", "CVE_MUN": "001", "CVE_LOC": "0564", "CVE_AGEB": "0025", "NOMGEO_1": "San Jeronimo" }, "geometry": { "type": "Point", "coordinates": [ -101.53487, 20.589414444000056 ] } },
{ "type": "Feature", "properties": { "OBJECTID": 309, "CVEGEO": "110010565003A800", "CVE_ENT": "11", "CVE_MUN": "001", "CVE_LOC": "0565", "CVE_AGEB": "003A", "NOMGEO_1": "San Juan de la Cruz (Las Cruces)" }, "geometry": { "type": "Point", "coordinates": [ -101.582265, 20.540755556000022 ] } },
{ "type": "Feature", "properties": { "OBJECTID": 310, "CVEGEO": "1100105660044800", "CVE_ENT": "11", "CVE_MUN": "001", "CVE_LOC": "0566", "CVE_AGEB": "0044", "NOMGEO_1": "San Juan de los Olivos (Antonio Specia)" }, "geometry": { "type": "Point", "coordinates": [ -101.519968332999952, 20.473199722000061 ] } },
{ "type": "Feature", "properties": { "OBJECTID": 311, "CVEGEO": "110010567003A800", "CVE_ENT": "11", "CVE_MUN": "001", "CVE_LOC": "0567", "CVE_AGEB": "003A", "NOMGEO_1": "San Nicolas de Gallardo" }, "geometry": { "type": "Point", "coordinates": [ -101.553728055999954, 20.499576666000053 ] } },
{ "type": "Feature", "properties": { "OBJECTID": 312, "CVEGEO": "110010568003A800", "CVE_ENT": "11", "CVE_MUN": "001", "CVE_LOC": "0568", "CVE_AGEB": "003A", "NOMGEO_1": "Santa Elena" }, "geometry": { "type": "Point", "coordinates": [ -101.509375832999979, 20.545873611000047 ] } },
{ "type": "Feature", "properties": { "OBJECTID": 313, "CVEGEO": "1100105690025800", "CVE_ENT": "11", "CVE_MUN": "001", "CVE_LOC": "0569", "CVE_AGEB": "0025", "NOMGEO_1": "Los Serranos (El Alacran)" }, "geometry": { "type": "Point", "coordinates": [ -101.549119443999984, 20.588050555000052 ] } },
{ "type": "Feature", "properties": { "OBJECTID": 314, "CVEGEO": "110010573003A800", "CVE_ENT": "11", "CVE_MUN": "001", "CVE_LOC": "0573", "CVE_AGEB": "003A", "NOMGEO_1": "La Providencia" }, "geometry": { "type": "Point", "coordinates": [ -101.543801110999937, 20.480911111000069 ] } },
{ "type": "Feature", "properties": { "OBJECTID": 315, "CVEGEO": "110010574003A800", "CVE_ENT": "11", "CVE_MUN": "001", "CVE_LOC": "0574", "CVE_AGEB": "003A", "NOMGEO_1": "San Nicolas de Navarrete" }, "geometry": { "type": "Point", "coordinates": [ -101.55487805599995, 20.49772861100007 ] } },
{ "type": "Feature", "properties": { "OBJECTID": 316, "CVEGEO": "1100105750078800", "CVE_ENT": "11", "CVE_MUN": "001", "CVE_LOC": "0575", "CVE_AGEB": "0078", "NOMGEO_1": "Vista Hermosa" }, "geometry": { "type": "Point", "coordinates": [ -101.372170832999984, 20.503124444000036 ] } },
{ "type": "Feature", "properties": { "OBJECTID": 317, "CVEGEO": "1100105760010800", "CVE_ENT": "11", "CVE_MUN": "001", "CVE_LOC": "0576", "CVE_AGEB": "0010", "NOMGEO_1": "San Vicente de Aguirre (Simeon Aguirre)" }, "geometry": { "type": "Point", "coordinates": [ -101.552548610999963, 20.608903055000042 ] } },
{ "type": "Feature", "properties": { "OBJECTID": 318, "CVEGEO": "1100105770082800", "CVE_ENT": "11", "CVE_MUN": "001", "CVE_LOC": "0577", "CVE_AGEB": "0082", "NOMGEO_1": "La Estrella" }, "geometry": { "type": "Point", "coordinates": [ -101.623555832999955, 20.361046944000066 ] } },
{ "type": "Feature", "properties": { "OBJECTID": 319, "CVEGEO": "1100105780082800", "CVE_ENT": "11", "CVE_MUN": "001", "CVE_LOC": "0578", "CVE_AGEB": "0082", "NOMGEO_1": "El Llano" }, "geometry": { "type": "Point", "coordinates": [ -101.606973055999958, 20.336015556000063 ] } },
{ "type": "Feature", "properties": { "OBJECTID": 320, "CVEGEO": "1100105790082800", "CVE_ENT": "11", "CVE_MUN": "001", "CVE_LOC": "0579", "CVE_AGEB": "0082", "NOMGEO_1": "Los Coyotes" }, "geometry": { "type": "Point", "coordinates": [ -101.592416110999977, 20.342206945000044 ] } },
{ "type": "Feature", "properties": { "OBJECTID": 321, "CVEGEO": "1100105800082800", "CVE_ENT": "11", "CVE_MUN": "001", "CVE_LOC": "0580", "CVE_AGEB": "0082", "NOMGEO_1": "La Granja" }, "geometry": { "type": "Point", "coordinates": [ -101.611398332999954, 20.349340277000067 ] } },
{ "type": "Feature", "properties": { "OBJECTID": 322, "CVEGEO": "1100105810082800", "CVE_ENT": "11", "CVE_MUN": "001", "CVE_LOC": "0581", "CVE_AGEB": "0082", "NOMGEO_1": "Palomar" }, "geometry": { "type": "Point", "coordinates": [ -101.557881666999947, 20.411445556000047 ] } },
{ "type": "Feature", "properties": { "OBJECTID": 323, "CVEGEO": "1100105820082800", "CVE_ENT": "11", "CVE_MUN": "001", "CVE_LOC": "0582", "CVE_AGEB": "0082", "NOMGEO_1": "Armando Cruz" }, "geometry": { "type": "Point", "coordinates": [ -101.560598332999973, 20.424817777000044 ] } },
{ "type": "Feature", "properties": { "OBJECTID": 324, "CVEGEO": "1100105830082800", "CVE_ENT": "11", "CVE_MUN": "001", "CVE_LOC": "0583", "CVE_AGEB": "0082", "NOMGEO_1": "Pedro Vazquez" }, "geometry": { "type": "Point", "coordinates": [ -101.558456666999973, 20.431004167000026 ] } },
{ "type": "Feature", "properties": { "OBJECTID": 325, "CVEGEO": "110010584003A800", "CVE_ENT": "11", "CVE_MUN": "001", "CVE_LOC": "0584", "CVE_AGEB": "003A", "NOMGEO_1": "Carolina" }, "geometry": { "type": "Point", "coordinates": [ -101.562956110999949, 20.435297777000073 ] } },
{ "type": "Feature", "properties": { "OBJECTID": 326, "CVEGEO": "110010585003A800", "CVE_ENT": "11", "CVE_MUN": "001", "CVE_LOC": "0585", "CVE_AGEB": "003A", "NOMGEO_1": "Elva" }, "geometry": { "type": "Point", "coordinates": [ -101.555892221999954, 20.436999167000067 ] } },
{ "type": "Feature", "properties": { "OBJECTID": 327, "CVEGEO": "110010586003A800", "CVE_ENT": "11", "CVE_MUN": "001", "CVE_LOC": "0586", "CVE_AGEB": "003A", "NOMGEO_1": "Colonia Solidaridad (Colonia Morelos)" }, "geometry": { "type": "Point", "coordinates": [ -101.551133610999955, 20.448663055000054 ] } },
{ "type": "Feature", "properties": { "OBJECTID": 328, "CVEGEO": "110010588003A800", "CVE_ENT": "11", "CVE_MUN": "001", "CVE_LOC": "0588", "CVE_AGEB": "003A", "NOMGEO_1": "San Francisco" }, "geometry": { "type": "Point", "coordinates": [ -101.592242499999941, 20.464506111000048 ] } },
{ "type": "Feature", "properties": { "OBJECTID": 329, "CVEGEO": "110010590003A800", "CVE_ENT": "11", "CVE_MUN": "001", "CVE_LOC": "0590", "CVE_AGEB": "003A", "NOMGEO_1": "San Jose de la Florida" }, "geometry": { "type": "Point", "coordinates": [ -101.540701666999951, 20.501728056000047 ] } },
{ "type": "Feature", "properties": { "OBJECTID": 330, "CVEGEO": "110010591003A800", "CVE_ENT": "11", "CVE_MUN": "001", "CVE_LOC": "0591", "CVE_AGEB": "003A", "NOMGEO_1": "San Miguel de Tiradores" }, "geometry": { "type": "Point", "coordinates": [ -101.58793861099997, 20.467217222000045 ] } },
{ "type": "Feature", "properties": { "OBJECTID": 331, "CVEGEO": "110010592003A800", "CVE_ENT": "11", "CVE_MUN": "001", "CVE_LOC": "0592", "CVE_AGEB": "003A", "NOMGEO_1": "La Concepcion" }, "geometry": { "type": "Point", "coordinates": [ -101.586429166999949, 20.507884722000028 ] } },
{ "type": "Feature", "properties": { "OBJECTID": 332, "CVEGEO": "1100105930025800", "CVE_ENT": "11", "CVE_MUN": "001", "CVE_LOC": "0593", "CVE_AGEB": "0025", "NOMGEO_1": "San Agustin" }, "geometry": { "type": "Point", "coordinates": [ -101.576843610999958, 20.580250278000051 ] } },
{ "type": "Feature", "properties": { "OBJECTID": 333, "CVEGEO": "1100105940010800", "CVE_ENT": "11", "CVE_MUN": "001", "CVE_LOC": "0594", "CVE_AGEB": "0010", "NOMGEO_1": "Pablo Toscano" }, "geometry": { "type": "Point", "coordinates": [ -101.594880833, 20.744298889000049 ] } },
{ "type": "Feature", "properties": { "OBJECTID": 334, "CVEGEO": "1100105950025800", "CVE_ENT": "11", "CVE_MUN": "001", "CVE_LOC": "0595", "CVE_AGEB": "0025", "NOMGEO_1": "Fraccionamiento el Refugio" }, "geometry": { "type": "Point", "coordinates": [ -101.52805555599997, 20.556666666000069 ] } },
{ "type": "Feature", "properties": { "OBJECTID": 335, "CVEGEO": "110010596003A800", "CVE_ENT": "11", "CVE_MUN": "001", "CVE_LOC": "0596", "CVE_AGEB": "003A", "NOMGEO_1": "Estancia San Miguel de Roa" }, "geometry": { "type": "Point", "coordinates": [ -101.551704166999968, 20.458950833000074 ] } },
{ "type": "Feature", "properties": { "OBJECTID": 336, "CVEGEO": "1100105970082800", "CVE_ENT": "11", "CVE_MUN": "001", "CVE_LOC": "0597", "CVE_AGEB": "0082", "NOMGEO_1": "Ejido Maritas (J. Jesis Cabrera Vazquez)" }, "geometry": { "type": "Point", "coordinates": [ -101.596914721999951, 20.345569444000034 ] } },
{ "type": "Feature", "properties": { "OBJECTID": 337, "CVEGEO": "1100105980044800", "CVE_ENT": "11", "CVE_MUN": "001", "CVE_LOC": "0598", "CVE_AGEB": "0044", "NOMGEO_1": "Fraccionamiento Residencial Campestre los Alamos" }, "geometry": { "type": "Point", "coordinates": [ -101.498296943999947, 20.457403055000043 ] } },
{ "type": "Feature", "properties": { "OBJECTID": 338, "CVEGEO": "110010600003A800", "CVE_ENT": "11", "CVE_MUN": "001", "CVE_LOC": "0600", "CVE_AGEB": "003A", "NOMGEO_1": "La Abandonada (El Gallito)" }, "geometry": { "type": "Point", "coordinates": [ -101.529071388999967, 20.539118611000049 ] } },
{ "type": "Feature", "properties": { "OBJECTID": 339, "CVEGEO": "1100106010044800", "CVE_ENT": "11", "CVE_MUN": "001", "CVE_LOC": "0601", "CVE_AGEB": "0044", "NOMGEO_1": "El Saucillo" }, "geometry": { "type": "Point", "coordinates": [ -101.503919167, 20.460282778000078 ] } },
{ "type": "Feature", "properties": { "OBJECTID": 340, "CVEGEO": "110010602003A800", "CVE_ENT": "11", "CVE_MUN": "001", "CVE_LOC": "0602", "CVE_AGEB": "003A", "NOMGEO_1": "San Jose de Ceballos" }, "geometry": { "type": "Point", "coordinates": [ -101.577181667, 20.439272222000056 ] } },
{ "type": "Feature", "properties": { "OBJECTID": 341, "CVEGEO": "110010604003A800", "CVE_ENT": "11", "CVE_MUN": "001", "CVE_LOC": "0604", "CVE_AGEB": "003A", "NOMGEO_1": "Estancia de Orozco" }, "geometry": { "type": "Point", "coordinates": [ -101.55174722199996, 20.451357500000029 ] } },
{ "type": "Feature", "properties": { "OBJECTID": 342, "CVEGEO": "1100106050044800", "CVE_ENT": "11", "CVE_MUN": "001", "CVE_LOC": "0605", "CVE_AGEB": "0044", "NOMGEO_1": "Colonia San Juan" }, "geometry": { "type": "Point", "coordinates": [ -101.532285555999977, 20.469477222000023 ] } },
{ "type": "Feature", "properties": { "OBJECTID": 343, "CVEGEO": "1100106060044800", "CVE_ENT": "11", "CVE_MUN": "001", "CVE_LOC": "0606", "CVE_AGEB": "0044", "NOMGEO_1": "Fraccionamiento Centenario" }, "geometry": { "type": "Point", "coordinates": [ -101.53923611099998, 20.475022778000039 ] } },
{ "type": "Feature", "properties": { "OBJECTID": 344, "CVEGEO": "1100106070078800", "CVE_ENT": "11", "CVE_MUN": "001", "CVE_LOC": "0607", "CVE_AGEB": "0078", "NOMGEO_1": "El Penon de Arriba" }, "geometry": { "type": "Point", "coordinates": [ -101.44688333299996, 20.477808333000041 ] } },
{ "type": "Feature", "properties": { "OBJECTID": 345, "CVEGEO": "110010608003A800", "CVE_ENT": "11", "CVE_MUN": "001", "CVE_LOC": "0608", "CVE_AGEB": "003A", "NOMGEO_1": "El Codo" }, "geometry": { "type": "Point", "coordinates": [ -101.598816666999937, 20.436291667000035 ] } },
{ "type": "Feature", "properties": { "OBJECTID": 346, "CVEGEO": "1100106090082800", "CVE_ENT": "11", "CVE_MUN": "001", "CVE_LOC": "0609", "CVE_AGEB": "0082", "NOMGEO_1": "Mellado" }, "geometry": { "type": "Point", "coordinates": [ -101.602999443999977, 20.398353889000077 ] } },
{ "type": "Feature", "properties": { "OBJECTID": 347, "CVEGEO": "1100106100082800", "CVE_ENT": "11", "CVE_MUN": "001", "CVE_LOC": "0610", "CVE_AGEB": "0082", "NOMGEO_1": "Monte Cocina" },